var citransport_points = {
"type": "FeatureCollection",
"crs": { "type": "name", "properties": { "name": "urn:ogc:def:crs:OGC:1.3:CRS84" } },
                                                                                
"features": [
{ "type": "Feature", "properties": { "id": 1.000000, "osm_id": 243041583.000000, "name": "Chintadripet", "type": "station", "ref": "MCPT" }, "geometry": { "type": "Point", "coordinates": [ 80.273817987972222, 13.074431157529204 ] } },
{ "type": "Feature", "properties": { "id": 2.000000, "osm_id": 243041746.000000, "name": "Velachery", "type": "station", "ref": "VLCY" }, "geometry": { "type": "Point", "coordinates": [ 80.219491353105298, 12.967292916794037 ] } },
{ "type": "Feature", "properties": { "id": 3.000000, "osm_id": 243041677.000000, "name": "Greenways Road", "type": "station", "ref": "GWYR" }, "geometry": { "type": "Point", "coordinates": [ 80.25259878099331, 13.021477478402147 ] } },
{ "type": "Feature", "properties": { "id": 4.000000, "osm_id": 243041687.000000, "name": "Kotturpuram", "type": "station", "ref": "KPTM" }, "geometry": { "type": "Point", "coordinates": [ 80.248440183552759, 13.014565174312025 ] } },
{ "type": "Feature", "properties": { "id": 5.000000, "osm_id": 243041698.000000, "name": "Indira Nagar", "type": "station", "ref": "INDR" }, "geometry": { "type": "Point", "coordinates": [ 80.249809954169393, 12.995812761437094 ] } },
{ "type": "Feature", "properties": { "id": 6.000000, "osm_id": 243041721.000000, "name": "Taramani", "type": "station", "ref": "TRMN" }, "geometry": { "type": "Point", "coordinates": [ 80.241056648866277, 12.978613431401158 ] } },
{ "type": "Feature", "properties": { "id": 7.000000, "osm_id": 243041731.000000, "name": "Perungudi", "type": "station", "ref": "PRGD" }, "geometry": { "type": "Point", "coordinates": [ 80.232009641675916, 12.975847570991958 ] } },
{ "type": "Feature", "properties": { "id": 8.000000, "osm_id": 247678427.000000, "name": "Thirumayliai", "type": "station", "ref": "MTMY" }, "geometry": { "type": "Point", "coordinates": [ 80.267413878671505, 13.035260931437762 ] } },
{ "type": "Feature", "properties": { "id": 9.000000, "osm_id": 247678486.000000, "name": "Lighthouse", "type": "station", "ref": "MLHS" }, "geometry": { "type": "Point", "coordinates": [ 80.276730196410824, 13.044928618558089 ] } },
{ "type": "Feature", "properties": { "id": 10.000000, "osm_id": 248467412.000000, "name": "Chetpet", "type": "station", "ref": "MSC" }, "geometry": { "type": "Point", "coordinates": [ 80.242601433621132, 13.074121781483058 ] } },
{ "type": "Feature", "properties": { "id": 11.000000, "osm_id": 248545059.000000, "name": null, "type": "station", "ref": null }, "geometry": { "type": "Point", "coordinates": [ 80.027124998892532, 13.123886565547764 ] } },
{ "type": "Feature", "properties": { "id": 12.000000, "osm_id": 247678330.000000, "name": "Mandaveli", "type": "station", "ref": "MNDY" }, "geometry": { "type": "Point", "coordinates": [ 80.260578268995459, 13.02789064015826 ] } },
{ "type": "Feature", "properties": { "id": 13.000000, "osm_id": 246866326.000000, "name": "Thiruvanmiyur Moffusil bus stop", "type": "bus_stop", "ref": null }, "geometry": { "type": "Point", "coordinates": [ 80.259418632691393, 12.987275373959703 ] } },
{ "type": "Feature", "properties": { "id": 14.000000, "osm_id": 249110186.000000, "name": "Kasturibai Nagar", "type": "station", "ref": "KTBR" }, "geometry": { "type": "Point", "coordinates": [ 80.247833752858185, 13.006299695773604 ] } },
{ "type": "Feature", "properties": { "id": 15.000000, "osm_id": 248545100.000000, "name": "Tirumullaivoyal", "type": "station", "ref": null }, "geometry": { "type": "Point", "coordinates": [ 80.137190284034887, 13.115225293541471 ] } },
{ "type": "Feature", "properties": { "id": 16.000000, "osm_id": 248545104.000000, "name": "Ambattur", "type": "station", "ref": null }, "geometry": { "type": "Point", "coordinates": [ 80.152698481286507, 13.114098765754958 ] } },
{ "type": "Feature", "properties": { "id": 17.000000, "osm_id": 248545108.000000, "name": "Pattaravakkam", "type": "station", "ref": null }, "geometry": { "type": "Point", "coordinates": [ 80.166181443093365, 13.114499839821804 ] } },
{ "type": "Feature", "properties": { "id": 18.000000, "osm_id": 248545112.000000, "name": "Korattur", "type": "station", "ref": null }, "geometry": { "type": "Point", "coordinates": [ 80.182514754893418, 13.113425196015925 ] } },
{ "type": "Feature", "properties": { "id": 19.000000, "osm_id": 252171207.000000, "name": null, "type": "level_crossing", "ref": null }, "geometry": { "type": "Point", "coordinates": [ 80.141992024905903, 12.952928597868491 ] } },
{ "type": "Feature", "properties": { "id": 20.000000, "osm_id": 249110189.000000, "name": "Thiruvanmiyur", "type": "station", "ref": "TYMR" }, "geometry": { "type": "Point", "coordinates": [ 80.251579625386398, 12.988826277503904 ] } },
{ "type": "Feature", "properties": { "id": 21.000000, "osm_id": 249272451.000000, "name": null, "type": "station", "ref": "CMP" }, "geometry": { "type": "Point", "coordinates": [ 80.141058867625588, 12.951579446733689 ] } },
{ "type": "Feature", "properties": { "id": 22.000000, "osm_id": 249497696.000000, "name": "Malar Hospital", "type": "bus_stop", "ref": null }, "geometry": { "type": "Point", "coordinates": [ 80.258361339425051, 13.007005368201787 ] } },
{ "type": "Feature", "properties": { "id": 23.000000, "osm_id": 249497892.000000, "name": "Sathya Studio", "type": "bus_stop", "ref": "mtcstop#1054" }, "geometry": { "type": "Point", "coordinates": [ 80.259262645473314, 13.014816463769163 ] } },
{ "type": "Feature", "properties": { "id": 24.000000, "osm_id": 252171241.000000, "name": null, "type": "station", "ref": "TLM" }, "geometry": { "type": "Point", "coordinates": [ 80.165740638805502, 12.98022669630498 ] } },
{ "type": "Feature", "properties": { "id": 25.000000, "osm_id": 252171380.000000, "name": null, "type": "station", "ref": "MN" }, "geometry": { "type": "Point", "coordinates": [ 80.174939777538441, 12.984519488015279 ] } },
{ "type": "Feature", "properties": { "id": 26.000000, "osm_id": 254142278.000000, "name": "Korukkupet", "type": "station", "ref": null }, "geometry": { "type": "Point", "coordinates": [ 80.278282357240471, 13.119720424394387 ] } },
{ "type": "Feature", "properties": { "id": 27.000000, "osm_id": 256203093.000000, "name": "Tambaram", "type": "station", "ref": "TBM" }, "geometry": { "type": "Point", "coordinates": [ 80.120484731914914, 12.926977387452979 ] } },
{ "type": "Feature", "properties": { "id": 28.000000, "osm_id": 256029551.000000, "name": null, "type": "station", "ref": "GDY:2;3" }, "geometry": { "type": "Point", "coordinates": [ 80.212707962686011, 13.008335492416393 ] } },
{ "type": "Feature", "properties": { "id": 29.000000, "osm_id": 256039818.000000, "name": "Guindy", "type": "bus_stop", "ref": null }, "geometry": { "type": "Point", "coordinates": [ 80.209390489228952, 13.008075318141891 ] } },
{ "type": "Feature", "properties": { "id": 30.000000, "osm_id": 261697888.000000, "name": "Guduvancheri", "type": "station", "ref": null }, "geometry": { "type": "Point", "coordinates": [ 80.057379143121182, 12.845320048546284 ] } },
{ "type": "Feature", "properties": { "id": 31.000000, "osm_id": 261697893.000000, "name": "Urapakkam", "type": "station", "ref": null }, "geometry": { "type": "Point", "coordinates": [ 80.072589866629187, 12.868106084685422 ] } },
{ "type": "Feature", "properties": { "id": 32.000000, "osm_id": 261697881.000000, "name": "Maraimalai Nagar", "type": "station", "ref": null }, "geometry": { "type": "Point", "coordinates": [ 80.019937852197359, 12.796883041763321 ] } },
{ "type": "Feature", "properties": { "id": 33.000000, "osm_id": 261697882.000000, "name": "Kattangulathur", "type": "station", "ref": null }, "geometry": { "type": "Point", "coordinates": [ 80.026459140504414, 12.805852432530259 ] } },
{ "type": "Feature", "properties": { "id": 34.000000, "osm_id": 261697884.000000, "name": "Potheri", "type": "station", "ref": null }, "geometry": { "type": "Point", "coordinates": [ 80.036940794241957, 12.821278990044988 ] } },
{ "type": "Feature", "properties": { "id": 35.000000, "osm_id": 261713045.000000, "name": "Villiyambakkam", "type": "station", "ref": null }, "geometry": { "type": "Point", "coordinates": [ 79.93402996637235, 12.752039189232761 ] } },
{ "type": "Feature", "properties": { "id": 36.000000, "osm_id": 261697898.000000, "name": "Vandalur", "type": "station", "ref": null }, "geometry": { "type": "Point", "coordinates": [ 80.084569450282856, 12.891223876552173 ] } },
{ "type": "Feature", "properties": { "id": 37.000000, "osm_id": 261698260.000000, "name": "Perungalathur", "type": "station", "ref": null }, "geometry": { "type": "Point", "coordinates": [ 80.095004416819663, 12.90511939563322 ] } },
{ "type": "Feature", "properties": { "id": 38.000000, "osm_id": 268789836.000000, "name": "IIT Gate Bus Stop", "type": "bus_stop", "ref": null }, "geometry": { "type": "Point", "coordinates": [ 80.242463886590087, 13.00584564807869 ] } },
{ "type": "Feature", "properties": { "id": 39.000000, "osm_id": 262308384.000000, "name": "Pattabiram Military Siding S", "type": "station", "ref": null }, "geometry": { "type": "Point", "coordinates": [ 80.059999493691294, 13.13626345141182 ] } },
{ "type": "Feature", "properties": { "id": 40.000000, "osm_id": 261712714.000000, "name": "Singaperumal Koil", "type": "station", "ref": null }, "geometry": { "type": "Point", "coordinates": [ 80.000448837671513, 12.76169338148898 ] } },
{ "type": "Feature", "properties": { "id": 41.000000, "osm_id": 262308388.000000, "name": null, "type": "station", "ref": null }, "geometry": { "type": "Point", "coordinates": [ 80.065115975026444, 13.119411383624396 ] } },
{ "type": "Feature", "properties": { "id": 42.000000, "osm_id": 261713038.000000, "name": "Reddipalayam", "type": "station", "ref": null }, "geometry": { "type": "Point", "coordinates": [ 79.953340530179617, 12.728191836513787 ] } },
{ "type": "Feature", "properties": { "id": 43.000000, "osm_id": 276613574.000000, "name": "Hindu College", "type": "station", "ref": null }, "geometry": { "type": "Point", "coordinates": [ 80.075042495316836, 13.118541090617867 ] } },
{ "type": "Feature", "properties": { "id": 44.000000, "osm_id": 276613764.000000, "name": "Pattabiram", "type": "station", "ref": null }, "geometry": { "type": "Point", "coordinates": [ 80.064948420782045, 13.11878274088636 ] } },
{ "type": "Feature", "properties": { "id": 45.000000, "osm_id": 262666364.000000, "name": null, "type": "bus_stop", "ref": null }, "geometry": { "type": "Point", "coordinates": [ 80.279698228324534, 13.050563688242619 ] } },
{ "type": "Feature", "properties": { "id": 46.000000, "osm_id": 276513695.000000, "name": "Tondiarpet", "type": "station", "ref": null }, "geometry": { "type": "Point", "coordinates": [ 80.281812563400067, 13.127446192187477 ] } },
{ "type": "Feature", "properties": { "id": 47.000000, "osm_id": 276513704.000000, "name": "Ennore", "type": "station", "ref": null }, "geometry": { "type": "Point", "coordinates": [ 80.321932459121058, 13.218050458360606 ] } },
{ "type": "Feature", "properties": { "id": 48.000000, "osm_id": 276513712.000000, "name": "Nandiambakkam", "type": "station", "ref": null }, "geometry": { "type": "Point", "coordinates": [ 80.276237256685192, 13.268577576518936 ] } },
{ "type": "Feature", "properties": { "id": 49.000000, "osm_id": 276513713.000000, "name": "Minjur", "type": "station", "ref": null }, "geometry": { "type": "Point", "coordinates": [ 80.260473495205758, 13.281577573064936 ] } },
{ "type": "Feature", "properties": { "id": 50.000000, "osm_id": 276598191.000000, "name": null, "type": "level_crossing", "ref": null }, "geometry": { "type": "Point", "coordinates": [ 80.212874259644991, 13.109598354303017 ] } },
{ "type": "Feature", "properties": { "id": 51.000000, "osm_id": 281993873.000000, "name": "Athipattu Pudhunagar", "type": "station", "ref": null }, "geometry": { "type": "Point", "coordinates": [ 80.299882940813802, 13.249221498977446 ] } },
{ "type": "Feature", "properties": { "id": 52.000000, "osm_id": 281996305.000000, "name": "Kathivakkam", "type": "station", "ref": null }, "geometry": { "type": "Point", "coordinates": [ 80.316872974727445, 13.204405474365416 ] } },
{ "type": "Feature", "properties": { "id": 53.000000, "osm_id": 281996873.000000, "name": "Wimco Nagar", "type": "station", "ref": null }, "geometry": { "type": "Point", "coordinates": [ 80.305821351574139, 13.180229551042061 ] } },
{ "type": "Feature", "properties": { "id": 54.000000, "osm_id": 281997193.000000, "name": "Thiruvottiyur", "type": "station", "ref": null }, "geometry": { "type": "Point", "coordinates": [ 80.296159783243127, 13.159086451743974 ] } },
{ "type": "Feature", "properties": { "id": 55.000000, "osm_id": 276615579.000000, "name": "Pattabiram Military Siding E Depot", "type": "station", "ref": null }, "geometry": { "type": "Point", "coordinates": [ 80.0690423937491, 13.145993248434678 ] } },
{ "type": "Feature", "properties": { "id": 56.000000, "osm_id": 277375984.000000, "name": null, "type": "bus_stop", "ref": null }, "geometry": { "type": "Point", "coordinates": [ 80.095112375732583, 12.991320648069319 ] } },
{ "type": "Feature", "properties": { "id": 57.000000, "osm_id": 279150540.000000, "name": "St. Thomas Mount Station", "type": "bus_stop", "ref": null }, "geometry": { "type": "Point", "coordinates": [ 80.20019294305763, 12.994639462630857 ] } },
{ "type": "Feature", "properties": { "id": 58.000000, "osm_id": 278745849.000000, "name": "Madipakkam Koot Road", "type": "bus_stop", "ref": null }, "geometry": { "type": "Point", "coordinates": [ 80.189479948792538, 12.968289860357515 ] } },
{ "type": "Feature", "properties": { "id": 59.000000, "osm_id": 278746364.000000, "name": "Hindu Colony", "type": "bus_stop", "ref": null }, "geometry": { "type": "Point", "coordinates": [ 80.18326292357068, 12.975492345935464 ] } },
{ "type": "Feature", "properties": { "id": 60.000000, "osm_id": 278747097.000000, "name": "Chidambaram Stores", "type": "bus_stop", "ref": null }, "geometry": { "type": "Point", "coordinates": [ 80.188702778730317, 12.983072939165593 ] } },
{ "type": "Feature", "properties": { "id": 61.000000, "osm_id": 281991655.000000, "name": "Athipattu", "type": "station", "ref": null }, "geometry": { "type": "Point", "coordinates": [ 80.289656767484985, 13.261030929996679 ] } },
{ "type": "Feature", "properties": { "id": 62.000000, "osm_id": 300316947.000000, "name": "Guindy Station", "type": "bus_stop", "ref": null }, "geometry": { "type": "Point", "coordinates": [ 80.213310537705183, 13.008132482721519 ] } },
{ "type": "Feature", "properties": { "id": 63.000000, "osm_id": 301736149.000000, "name": "Alwarpet", "type": "bus_stop", "ref": null }, "geometry": { "type": "Point", "coordinates": [ 80.255927067105404, 13.038081358036607 ] } },
{ "type": "Feature", "properties": { "id": 64.000000, "osm_id": 301736148.000000, "name": "Eldams Road", "type": "bus_stop", "ref": null }, "geometry": { "type": "Point", "coordinates": [ 80.250039534497319, 13.0389088195179 ] } },
{ "type": "Feature", "properties": { "id": 65.000000, "osm_id": 301736165.000000, "name": "Alwarpet", "type": "bus_stop", "ref": null }, "geometry": { "type": "Point", "coordinates": [ 80.258849166189748, 13.038753419033071 ] } },
{ "type": "Feature", "properties": { "id": 66.000000, "osm_id": 301736187.000000, "name": "Vanavil", "type": "bus_stop", "ref": null }, "geometry": { "type": "Point", "coordinates": [ 80.247647171693529, 13.041494720465975 ] } },
{ "type": "Feature", "properties": { "id": 67.000000, "osm_id": 301736903.000000, "name": "Chola Sheraton", "type": "bus_stop", "ref": null }, "geometry": { "type": "Point", "coordinates": [ 80.256644055102868, 13.045882479139236 ] } },
{ "type": "Feature", "properties": { "id": 68.000000, "osm_id": 301736902.000000, "name": "Stella Maris", "type": "bus_stop", "ref": null }, "geometry": { "type": "Point", "coordinates": [ 80.253870399523748, 13.047903188356315 ] } },
{ "type": "Feature", "properties": { "id": 69.000000, "osm_id": 301736913.000000, "name": "Alwarpet", "type": "bus_stop", "ref": null }, "geometry": { "type": "Point", "coordinates": [ 80.257130876039184, 13.035107626428726 ] } },
{ "type": "Feature", "properties": { "id": 70.000000, "osm_id": 303010139.000000, "name": null, "type": "bus_stop", "ref": null }, "geometry": { "type": "Point", "coordinates": [ 80.25294344485178, 13.033220692386294 ] } },
{ "type": "Feature", "properties": { "id": 71.000000, "osm_id": 301736898.000000, "name": "SIET", "type": "bus_stop", "ref": null }, "geometry": { "type": "Point", "coordinates": [ 80.246879640819941, 13.03795252818483 ] } },
{ "type": "Feature", "properties": { "id": 72.000000, "osm_id": 303284248.000000, "name": "Ripon Building", "type": "bus_stop", "ref": null }, "geometry": { "type": "Point", "coordinates": [ 80.272157281496447, 13.08135628593115 ] } },
{ "type": "Feature", "properties": { "id": 73.000000, "osm_id": 303512414.000000, "name": "Saidapet Bridge", "type": "bus_stop", "ref": null }, "geometry": { "type": "Point", "coordinates": [ 80.224861219373452, 13.019502785833481 ] } },
{ "type": "Feature", "properties": { "id": 74.000000, "osm_id": 303536869.000000, "name": null, "type": "bus_stop", "ref": null }, "geometry": { "type": "Point", "coordinates": [ 80.254161838297065, 13.029223446581881 ] } },
{ "type": "Feature", "properties": { "id": 75.000000, "osm_id": 303695784.000000, "name": "Commissioner Office", "type": "bus_stop", "ref": null }, "geometry": { "type": "Point", "coordinates": [ 80.26181552172288, 13.073767143159785 ] } },
{ "type": "Feature", "properties": { "id": 76.000000, "osm_id": 304278622.000000, "name": "Anna Nagar West", "type": "station", "ref": null }, "geometry": { "type": "Point", "coordinates": [ 80.201124340138264, 13.098609427785448 ] } },
{ "type": "Feature", "properties": { "id": 77.000000, "osm_id": 303284240.000000, "name": "General Hospital", "type": "bus_stop", "ref": null }, "geometry": { "type": "Point", "coordinates": [ 80.276755761215483, 13.081756940902835 ] } },
{ "type": "Feature", "properties": { "id": 78.000000, "osm_id": 304908971.000000, "name": null, "type": "bus_stop", "ref": null }, "geometry": { "type": "Point", "coordinates": [ 80.250522583577208, 13.03534399609822 ] } },
{ "type": "Feature", "properties": { "id": 79.000000, "osm_id": 303010141.000000, "name": null, "type": "bus_stop", "ref": null }, "geometry": { "type": "Point", "coordinates": [ 80.247441731246724, 13.035523620283213 ] } },
{ "type": "Feature", "properties": { "id": 80.000000, "osm_id": 301736912.000000, "name": "Music Academy", "type": "bus_stop", "ref": null }, "geometry": { "type": "Point", "coordinates": [ 80.26053434782277, 13.046469296180417 ] } },
{ "type": "Feature", "properties": { "id": 81.000000, "osm_id": 303695815.000000, "name": null, "type": "bus_stop", "ref": null }, "geometry": { "type": "Point", "coordinates": [ 80.263655181831382, 13.078387499646112 ] } },
{ "type": "Feature", "properties": { "id": 82.000000, "osm_id": 303510894.000000, "name": null, "type": "bus_stop", "ref": null }, "geometry": { "type": "Point", "coordinates": [ 80.237884769067364, 13.029835157875482 ] } },
{ "type": "Feature", "properties": { "id": 83.000000, "osm_id": 303695785.000000, "name": null, "type": "bus_stop", "ref": null }, "geometry": { "type": "Point", "coordinates": [ 80.262541143080625, 13.072687637850066 ] } },
{ "type": "Feature", "properties": { "id": 84.000000, "osm_id": 303536872.000000, "name": null, "type": "bus_stop", "ref": null }, "geometry": { "type": "Point", "coordinates": [ 80.259833453079466, 13.029334255341837 ] } },
{ "type": "Feature", "properties": { "id": 85.000000, "osm_id": 301736152.000000, "name": "Alwarpet", "type": "bus_stop", "ref": null }, "geometry": { "type": "Point", "coordinates": [ 80.25521007910794, 13.036221916636604 ] } },
{ "type": "Feature", "properties": { "id": 86.000000, "osm_id": 304278630.000000, "name": "Padi", "type": "station", "ref": null }, "geometry": { "type": "Point", "coordinates": [ 80.194870685999533, 13.103177648834048 ] } },
{ "type": "Feature", "properties": { "id": 87.000000, "osm_id": 303569588.000000, "name": null, "type": "bus_stop", "ref": null }, "geometry": { "type": "Point", "coordinates": [ 80.249267561215049, 13.029045163501365 ] } },
{ "type": "Feature", "properties": { "id": 88.000000, "osm_id": 304920824.000000, "name": null, "type": "bus_stop", "ref": null }, "geometry": { "type": "Point", "coordinates": [ 80.200703484779908, 13.003664593053912 ] } },
{ "type": "Feature", "properties": { "id": 89.000000, "osm_id": 304921944.000000, "name": "Egmore Station", "type": "bus_stop", "ref": null }, "geometry": { "type": "Point", "coordinates": [ 80.262385658776736, 13.077921884924848 ] } },
{ "type": "Feature", "properties": { "id": 90.000000, "osm_id": 304920825.000000, "name": null, "type": "bus_stop", "ref": null }, "geometry": { "type": "Point", "coordinates": [ 80.200785543612028, 13.002499759969879 ] } },
{ "type": "Feature", "properties": { "id": 91.000000, "osm_id": 306551395.000000, "name": "Vanavil", "type": "bus_stop", "ref": null }, "geometry": { "type": "Point", "coordinates": [ 80.247013835089717, 13.040552594549268 ] } },
{ "type": "Feature", "properties": { "id": 92.000000, "osm_id": 306551396.000000, "name": "SIET", "type": "bus_stop", "ref": null }, "geometry": { "type": "Point", "coordinates": [ 80.246399022491971, 13.03730024847988 ] } },
{ "type": "Feature", "properties": { "id": 93.000000, "osm_id": 305478863.000000, "name": "Sadasiva Nagar", "type": "bus_stop", "ref": null }, "geometry": { "type": "Point", "coordinates": [ 80.204466037295504, 12.965592480097227 ] } },
{ "type": "Feature", "properties": { "id": 94.000000, "osm_id": 308198243.000000, "name": "Little Mount", "type": "bus_stop", "ref": null }, "geometry": { "type": "Point", "coordinates": [ 80.224953839403497, 13.015454578057785 ] } },
{ "type": "Feature", "properties": { "id": 95.000000, "osm_id": 308301022.000000, "name": "DMS", "type": "bus_stop", "ref": null }, "geometry": { "type": "Point", "coordinates": [ 80.248298194113033, 13.046790742167133 ] } },
{ "type": "Feature", "properties": { "id": 96.000000, "osm_id": 306113540.000000, "name": "Palavakkam", "type": "bus_stop", "ref": null }, "geometry": { "type": "Point", "coordinates": [ 80.25602672793417, 12.959989932197033 ] } },
{ "type": "Feature", "properties": { "id": 97.000000, "osm_id": 309185794.000000, "name": "Dams Road", "type": "bus_stop", "ref": null }, "geometry": { "type": "Point", "coordinates": [ 80.268571251861715, 13.067109146011973 ] } },
{ "type": "Feature", "properties": { "id": 98.000000, "osm_id": 309185812.000000, "name": "LIC", "type": "bus_stop", "ref": null }, "geometry": { "type": "Point", "coordinates": [ 80.263698516270836, 13.062790370401814 ] } },
{ "type": "Feature", "properties": { "id": 99.000000, "osm_id": 308917111.000000, "name": "Pazhavanthangal Station", "type": "bus_stop", "ref": null }, "geometry": { "type": "Point", "coordinates": [ 80.185607593345409, 12.988007449382875 ] } },
{ "type": "Feature", "properties": { "id": 100.000000, "osm_id": 309062093.000000, "name": null, "type": "bus_stop", "ref": null }, "geometry": { "type": "Point", "coordinates": [ 80.273803487279679, 13.070288150428581 ] } },
{ "type": "Feature", "properties": { "id": 101.000000, "osm_id": 309062094.000000, "name": null, "type": "bus_stop", "ref": null }, "geometry": { "type": "Point", "coordinates": [ 80.27369946786132, 13.070645387141836 ] } },
{ "type": "Feature", "properties": { "id": 102.000000, "osm_id": 309323867.000000, "name": null, "type": "bus_stop", "ref": null }, "geometry": { "type": "Point", "coordinates": [ 80.249307039978987, 13.055034930671496 ] } },
{ "type": "Feature", "properties": { "id": 103.000000, "osm_id": 309185820.000000, "name": "TVS", "type": "bus_stop", "ref": null }, "geometry": { "type": "Point", "coordinates": [ 80.259705126141853, 13.059228564467276 ] } },
{ "type": "Feature", "properties": { "id": 104.000000, "osm_id": 309185827.000000, "name": "TVS", "type": "bus_stop", "ref": null }, "geometry": { "type": "Point", "coordinates": [ 80.259460961302395, 13.059311545308674 ] } },
{ "type": "Feature", "properties": { "id": 105.000000, "osm_id": 309323593.000000, "name": null, "type": "bus_stop", "ref": null }, "geometry": { "type": "Point", "coordinates": [ 80.244680732341394, 13.0627271708519 ] } },
{ "type": "Feature", "properties": { "id": 106.000000, "osm_id": 309323853.000000, "name": null, "type": "bus_stop", "ref": null }, "geometry": { "type": "Point", "coordinates": [ 80.249648183438111, 13.054979023377314 ] } },
{ "type": "Feature", "properties": { "id": 107.000000, "osm_id": 310729808.000000, "name": "Yellow Pages", "type": "bus_stop", "ref": "mtcstop#0626" }, "geometry": { "type": "Point", "coordinates": [ 80.268548033989916, 13.044513379074886 ] } },
{ "type": "Feature", "properties": { "id": 108.000000, "osm_id": 310100943.000000, "name": "IIT\/CLRI", "type": "bus_stop", "ref": null }, "geometry": { "type": "Point", "coordinates": [ 80.240724641681538, 13.006864887504605 ] } },
{ "type": "Feature", "properties": { "id": 109.000000, "osm_id": 306551393.000000, "name": "Saidapet Bridge", "type": "bus_stop", "ref": null }, "geometry": { "type": "Point", "coordinates": [ 80.224226122569974, 13.019259459184354 ] } },
{ "type": "Feature", "properties": { "id": 110.000000, "osm_id": 308811912.000000, "name": "Vanuvampet", "type": "bus_stop", "ref": null }, "geometry": { "type": "Point", "coordinates": [ 80.195616759201002, 12.981692774989057 ] } },
{ "type": "Feature", "properties": { "id": 111.000000, "osm_id": 311350711.000000, "name": null, "type": "level_crossing", "ref": null }, "geometry": { "type": "Point", "coordinates": [ 80.212902674296743, 13.109771440603566 ] } },
{ "type": "Feature", "properties": { "id": 112.000000, "osm_id": 310593525.000000, "name": "Balaiah Garden", "type": "bus_stop", "ref": null }, "geometry": { "type": "Point", "coordinates": [ 80.200268966919438, 12.965337334964628 ] } },
{ "type": "Feature", "properties": { "id": 113.000000, "osm_id": 310593794.000000, "name": "Kaiveli", "type": "bus_stop", "ref": null }, "geometry": { "type": "Point", "coordinates": [ 80.215778589094597, 12.963497171941922 ] } },
{ "type": "Feature", "properties": { "id": 114.000000, "osm_id": 310591980.000000, "name": "Moovarasampettai", "type": "bus_stop", "ref": null }, "geometry": { "type": "Point", "coordinates": [ 80.18634084223504, 12.96999012941626 ] } },
{ "type": "Feature", "properties": { "id": 115.000000, "osm_id": 310592291.000000, "name": "Axis bank", "type": "bus_stop", "ref": null }, "geometry": { "type": "Point", "coordinates": [ 80.188566237527596, 12.966133783404189 ] } },
{ "type": "Feature", "properties": { "id": 116.000000, "osm_id": 310592748.000000, "name": "Ponniamman Koil", "type": "bus_stop", "ref": null }, "geometry": { "type": "Point", "coordinates": [ 80.196234840741056, 12.964684887621615 ] } },
{ "type": "Feature", "properties": { "id": 117.000000, "osm_id": 313135889.000000, "name": null, "type": "bus_stop", "ref": null }, "geometry": { "type": "Point", "coordinates": [ 80.254963232059467, 13.056465553905156 ] } },
{ "type": "Feature", "properties": { "id": 118.000000, "osm_id": 313135886.000000, "name": null, "type": "bus_stop", "ref": null }, "geometry": { "type": "Point", "coordinates": [ 80.253770571056904, 13.054096241335088 ] } },
{ "type": "Feature", "properties": { "id": 119.000000, "osm_id": 312031432.000000, "name": "Gandhinagar", "type": "bus_stop", "ref": null }, "geometry": { "type": "Point", "coordinates": [ 80.249380297812706, 13.006843681289553 ] } },
{ "type": "Feature", "properties": { "id": 120.000000, "osm_id": 313106870.000000, "name": "Ashoknagar Moffussil Bus stop", "type": "bus_stop", "ref": null }, "geometry": { "type": "Point", "coordinates": [ 80.211193017506446, 13.031986373324969 ] } },
{ "type": "Feature", "properties": { "id": 121.000000, "osm_id": 312686129.000000, "name": "Ajanta", "type": "bus_stop", "ref": null }, "geometry": { "type": "Point", "coordinates": [ 80.266331020600489, 13.047314527296436 ] } },
{ "type": "Feature", "properties": { "id": 122.000000, "osm_id": 313159416.000000, "name": "Guru Nanak College Bus Stop", "type": "bus_stop", "ref": null }, "geometry": { "type": "Point", "coordinates": [ 80.22025075353281, 12.990701644519959 ] } },
{ "type": "Feature", "properties": { "id": 123.000000, "osm_id": 313783576.000000, "name": "Vannanthurai", "type": "bus_stop", "ref": null }, "geometry": { "type": "Point", "coordinates": [ 80.262456653496599, 12.996318441655545 ] } },
{ "type": "Feature", "properties": { "id": 124.000000, "osm_id": 316244810.000000, "name": "Thousand Lights", "type": "bus_stop", "ref": null }, "geometry": { "type": "Point", "coordinates": [ 80.256436183904157, 13.056521628837373 ] } },
{ "type": "Feature", "properties": { "id": 125.000000, "osm_id": 316244809.000000, "name": "Shanti Theatre", "type": "bus_stop", "ref": "mtcstop#0634" }, "geometry": { "type": "Point", "coordinates": [ 80.270566228636028, 13.067255745498471 ] } },
{ "type": "Feature", "properties": { "id": 126.000000, "osm_id": 313442701.000000, "name": "Vetrivel Theatre", "type": "bus_stop", "ref": null }, "geometry": { "type": "Point", "coordinates": [ 80.182978274138918, 12.979639376349608 ] } },
{ "type": "Feature", "properties": { "id": 127.000000, "osm_id": 313774911.000000, "name": null, "type": "bus_stop", "ref": null }, "geometry": { "type": "Point", "coordinates": [ 80.247714226918902, 13.003418919471898 ] } },
{ "type": "Feature", "properties": { "id": 128.000000, "osm_id": 315888034.000000, "name": "Royapettah High Road Police Station", "type": "bus_stop", "ref": "mtcstop#0623" }, "geometry": { "type": "Point", "coordinates": [ 80.26375542939337, 13.052317182386503 ] } },
{ "type": "Feature", "properties": { "id": 129.000000, "osm_id": 316244808.000000, "name": null, "type": "bus_stop", "ref": null }, "geometry": { "type": "Point", "coordinates": [ 80.257683075820282, 13.052008560711668 ] } },
{ "type": "Feature", "properties": { "id": 130.000000, "osm_id": 316066248.000000, "name": "Secretariat", "type": "bus_stop", "ref": null }, "geometry": { "type": "Point", "coordinates": [ 80.288366541129491, 13.080374262155345 ] } },
{ "type": "Feature", "properties": { "id": 131.000000, "osm_id": 319473140.000000, "name": null, "type": "bus_stop", "ref": null }, "geometry": { "type": "Point", "coordinates": [ 80.255042943958699, 13.067773160381364 ] } },
{ "type": "Feature", "properties": { "id": 132.000000, "osm_id": 317827746.000000, "name": "Jayanti", "type": "bus_stop", "ref": null }, "geometry": { "type": "Point", "coordinates": [ 80.255873674382201, 12.988520338038057 ] } },
{ "type": "Feature", "properties": { "id": 133.000000, "osm_id": 317827781.000000, "name": "Jayanti", "type": "bus_stop", "ref": null }, "geometry": { "type": "Point", "coordinates": [ 80.255963444565225, 12.988404081041066 ] } },
{ "type": "Feature", "properties": { "id": 134.000000, "osm_id": 316732144.000000, "name": null, "type": "level_crossing", "ref": null }, "geometry": { "type": "Point", "coordinates": [ 79.976083399517393, 12.700200554684868 ] } },
{ "type": "Feature", "properties": { "id": 135.000000, "osm_id": 318066696.000000, "name": "ECR Marudeeswara Temple", "type": "bus_stop", "ref": "mtcstop#1027" }, "geometry": { "type": "Point", "coordinates": [ 80.259703785037345, 12.985293053859181 ] } },
{ "type": "Feature", "properties": { "id": 136.000000, "osm_id": 318069500.000000, "name": "Thiruvanmiyur ECR Moffusil Bus stop", "type": "bus_stop", "ref": null }, "geometry": { "type": "Point", "coordinates": [ 80.259762877454691, 12.985802338295997 ] } },
{ "type": "Feature", "properties": { "id": 137.000000, "osm_id": 330654132.000000, "name": null, "type": "bus_stop", "ref": null }, "geometry": { "type": "Point", "coordinates": [ 80.238516429290485, 12.986561822542541 ] } },
{ "type": "Feature", "properties": { "id": 138.000000, "osm_id": 323202504.000000, "name": "Paranur", "type": "station", "ref": null }, "geometry": { "type": "Point", "coordinates": [ 79.983733562543875, 12.729988665097094 ] } },
{ "type": "Feature", "properties": { "id": 139.000000, "osm_id": 322719303.000000, "name": "Jayanti", "type": "bus_stop", "ref": null }, "geometry": { "type": "Point", "coordinates": [ 80.255339495692965, 12.987647698098669 ] } },
{ "type": "Feature", "properties": { "id": 140.000000, "osm_id": 325191477.000000, "name": null, "type": "bus_stop", "ref": null }, "geometry": { "type": "Point", "coordinates": [ 80.247537368761982, 13.00618938992784 ] } },
{ "type": "Feature", "properties": { "id": 141.000000, "osm_id": 325191941.000000, "name": "IIT\/CLRI", "type": "bus_stop", "ref": null }, "geometry": { "type": "Point", "coordinates": [ 80.241600382925128, 13.00651502686614 ] } },
{ "type": "Feature", "properties": { "id": 142.000000, "osm_id": 330780591.000000, "name": null, "type": "bus_stop", "ref": null }, "geometry": { "type": "Point", "coordinates": [ 80.235387129559683, 12.986559894704811 ] } },
{ "type": "Feature", "properties": { "id": 143.000000, "osm_id": 330780587.000000, "name": null, "type": "bus_stop", "ref": null }, "geometry": { "type": "Point", "coordinates": [ 80.229818947462491, 12.988515225077123 ] } },
{ "type": "Feature", "properties": { "id": 144.000000, "osm_id": 330780590.000000, "name": null, "type": "bus_stop", "ref": null }, "geometry": { "type": "Point", "coordinates": [ 80.233214540257109, 12.986714624637385 ] } },
{ "type": "Feature", "properties": { "id": 145.000000, "osm_id": 334201402.000000, "name": "Adyar Depot", "type": "bus_stop", "ref": null }, "geometry": { "type": "Point", "coordinates": [ 80.256781937410096, 12.996903498497062 ] } },
{ "type": "Feature", "properties": { "id": 146.000000, "osm_id": 334222896.000000, "name": null, "type": "bus_stop", "ref": null }, "geometry": { "type": "Point", "coordinates": [ 80.263299621498788, 13.044812864475261 ] } },
{ "type": "Feature", "properties": { "id": 147.000000, "osm_id": 334222809.000000, "name": null, "type": "bus_stop", "ref": null }, "geometry": { "type": "Point", "coordinates": [ 80.268376624070015, 13.043982134051731 ] } },
{ "type": "Feature", "properties": { "id": 148.000000, "osm_id": 334267136.000000, "name": null, "type": "bus_stop", "ref": null }, "geometry": { "type": "Point", "coordinates": [ 80.267455788187362, 12.995654594924217 ] } },
{ "type": "Feature", "properties": { "id": 149.000000, "osm_id": 334713159.000000, "name": "Malar Hospital", "type": "bus_stop", "ref": null }, "geometry": { "type": "Point", "coordinates": [ 80.258755540331322, 13.007819083361852 ] } },
{ "type": "Feature", "properties": { "id": 150.000000, "osm_id": 334713155.000000, "name": "Banyan Tree", "type": "bus_stop", "ref": null }, "geometry": { "type": "Point", "coordinates": [ 80.259270859738422, 13.011014767765799 ] } },
{ "type": "Feature", "properties": { "id": 151.000000, "osm_id": 340082846.000000, "name": null, "type": "station", "ref": null }, "geometry": { "type": "Point", "coordinates": [ 80.141015617005223, 12.95132279285852 ] } },
{ "type": "Feature", "properties": { "id": 152.000000, "osm_id": 343721497.000000, "name": "Alwarpet", "type": "bus_stop", "ref": null }, "geometry": { "type": "Point", "coordinates": [ 80.258819578071552, 13.038655099308841 ] } },
{ "type": "Feature", "properties": { "id": 153.000000, "osm_id": 344411089.000000, "name": "Sterling Road", "type": "bus_stop", "ref": null }, "geometry": { "type": "Point", "coordinates": [ 80.243452867345525, 13.063500569057709 ] } },
{ "type": "Feature", "properties": { "id": 154.000000, "osm_id": 356274121.000000, "name": "Ice House stop", "type": "bus_stop", "ref": null }, "geometry": { "type": "Point", "coordinates": [ 80.280483445013829, 13.049044971206598 ] } },
{ "type": "Feature", "properties": { "id": 155.000000, "osm_id": 347527412.000000, "name": "Annanur", "type": "station", "ref": null }, "geometry": { "type": "Point", "coordinates": [ 80.127188578073117, 13.116364897096929 ] } },
{ "type": "Feature", "properties": { "id": 156.000000, "osm_id": 355515114.000000, "name": "Chola Sheraton", "type": "bus_stop", "ref": null }, "geometry": { "type": "Point", "coordinates": [ 80.256557972957296, 13.046209289543979 ] } },
{ "type": "Feature", "properties": { "id": 157.000000, "osm_id": 355550113.000000, "name": "Egmore Station", "type": "bus_stop", "ref": null }, "geometry": { "type": "Point", "coordinates": [ 80.261880481472474, 13.077511590764487 ] } },
{ "type": "Feature", "properties": { "id": 158.000000, "osm_id": 353719171.000000, "name": null, "type": "bus_stop", "ref": null }, "geometry": { "type": "Point", "coordinates": [ 80.187068726706627, 12.99494372571607 ] } },
{ "type": "Feature", "properties": { "id": 159.000000, "osm_id": 356277093.000000, "name": "LIC stop", "type": "bus_stop", "ref": null }, "geometry": { "type": "Point", "coordinates": [ 80.268721790842676, 13.066517718924047 ] } },
{ "type": "Feature", "properties": { "id": 160.000000, "osm_id": 357233537.000000, "name": "Kannagi Statue", "type": "bus_stop", "ref": null }, "geometry": { "type": "Point", "coordinates": [ 80.281738635014051, 13.056389865319487 ] } },
{ "type": "Feature", "properties": { "id": 161.000000, "osm_id": 357233543.000000, "name": "Kannagi Statue", "type": "bus_stop", "ref": null }, "geometry": { "type": "Point", "coordinates": [ 80.282008532296231, 13.056796722899547 ] } },
{ "type": "Feature", "properties": { "id": 162.000000, "osm_id": 360807238.000000, "name": null, "type": "bus_stop", "ref": null }, "geometry": { "type": "Point", "coordinates": [ 80.247668964641775, 13.059485385980508 ] } },
{ "type": "Feature", "properties": { "id": 163.000000, "osm_id": 360807083.000000, "name": null, "type": "bus_stop", "ref": null }, "geometry": { "type": "Point", "coordinates": [ 80.247617499756302, 13.06065591875867 ] } },
{ "type": "Feature", "properties": { "id": 164.000000, "osm_id": 360807295.000000, "name": null, "type": "bus_stop", "ref": null }, "geometry": { "type": "Point", "coordinates": [ 80.248063752281269, 13.059468622174165 ] } },
{ "type": "Feature", "properties": { "id": 165.000000, "osm_id": 362227770.000000, "name": "MRC Nagar", "type": "bus_stop", "ref": null }, "geometry": { "type": "Point", "coordinates": [ 80.26990917124624, 13.020773566173629 ] } },
{ "type": "Feature", "properties": { "id": 166.000000, "osm_id": 365279752.000000, "name": "DMS", "type": "bus_stop", "ref": null }, "geometry": { "type": "Point", "coordinates": [ 80.248706141340449, 13.047013197877332 ] } },
{ "type": "Feature", "properties": { "id": 167.000000, "osm_id": 365957307.000000, "name": "Nandambakkam", "type": "bus_stop", "ref": null }, "geometry": { "type": "Point", "coordinates": [ 80.189233185563126, 13.016657045887058 ] } },
{ "type": "Feature", "properties": { "id": 168.000000, "osm_id": 366083028.000000, "name": "Guindy", "type": "bus_stop", "ref": null }, "geometry": { "type": "Point", "coordinates": [ 80.211224784919466, 13.008826420485263 ] } },
{ "type": "Feature", "properties": { "id": 169.000000, "osm_id": 366855005.000000, "name": "DPI", "type": "bus_stop", "ref": null }, "geometry": { "type": "Point", "coordinates": [ 80.253856988478674, 13.067250464899473 ] } },
{ "type": "Feature", "properties": { "id": 170.000000, "osm_id": 365983874.000000, "name": "Saidapet Court", "type": "bus_stop", "ref": null }, "geometry": { "type": "Point", "coordinates": [ 80.226526535895914, 13.013980955660855 ] } },
{ "type": "Feature", "properties": { "id": 171.000000, "osm_id": 368390910.000000, "name": "Muttukaadu", "type": "bus_stop", "ref": null }, "geometry": { "type": "Point", "coordinates": [ 80.240163640902153, 12.823861622050799 ] } },
{ "type": "Feature", "properties": { "id": 172.000000, "osm_id": 370969652.000000, "name": null, "type": "bus_stop", "ref": null }, "geometry": { "type": "Point", "coordinates": [ 80.127979662094617, 13.04072718959236 ] } },
{ "type": "Feature", "properties": { "id": 173.000000, "osm_id": 370969664.000000, "name": null, "type": "bus_stop", "ref": null }, "geometry": { "type": "Point", "coordinates": [ 80.154342591594002, 13.035655635258195 ] } },
{ "type": "Feature", "properties": { "id": 174.000000, "osm_id": 370969697.000000, "name": null, "type": "bus_stop", "ref": null }, "geometry": { "type": "Point", "coordinates": [ 80.168296029625992, 13.029443136264062 ] } },
{ "type": "Feature", "properties": { "id": 175.000000, "osm_id": 370969694.000000, "name": null, "type": "bus_stop", "ref": null }, "geometry": { "type": "Point", "coordinates": [ 80.168378088458041, 13.029637931693799 ] } },
{ "type": "Feature", "properties": { "id": 176.000000, "osm_id": 370969655.000000, "name": null, "type": "bus_stop", "ref": null }, "geometry": { "type": "Point", "coordinates": [ 80.135237971147717, 13.038163165411587 ] } },
{ "type": "Feature", "properties": { "id": 177.000000, "osm_id": 370969668.000000, "name": null, "type": "bus_stop", "ref": null }, "geometry": { "type": "Point", "coordinates": [ 80.142641287125741, 13.036578482797609 ] } },
{ "type": "Feature", "properties": { "id": 178.000000, "osm_id": 370969686.000000, "name": null, "type": "bus_stop", "ref": null }, "geometry": { "type": "Point", "coordinates": [ 80.163732837719294, 13.032278482650554 ] } },
{ "type": "Feature", "properties": { "id": 179.000000, "osm_id": 370969661.000000, "name": null, "type": "bus_stop", "ref": null }, "geometry": { "type": "Point", "coordinates": [ 80.14229888638107, 13.036854834145231 ] } },
{ "type": "Feature", "properties": { "id": 180.000000, "osm_id": 370969671.000000, "name": null, "type": "bus_stop", "ref": null }, "geometry": { "type": "Point", "coordinates": [ 80.155185727234255, 13.034984077175949 ] } },
{ "type": "Feature", "properties": { "id": 181.000000, "osm_id": 370969689.000000, "name": null, "type": "bus_stop", "ref": null }, "geometry": { "type": "Point", "coordinates": [ 80.163599397820803, 13.032059547339657 ] } },
{ "type": "Feature", "properties": { "id": 182.000000, "osm_id": 370969649.000000, "name": null, "type": "bus_stop", "ref": null }, "geometry": { "type": "Point", "coordinates": [ 80.128079322923327, 13.040856689996389 ] } },
{ "type": "Feature", "properties": { "id": 183.000000, "osm_id": 370969700.000000, "name": "Moon lite", "type": "bus_stop", "ref": null }, "geometry": { "type": "Point", "coordinates": [ 80.176833752379537, 13.02493928823182 ] } },
{ "type": "Feature", "properties": { "id": 184.000000, "osm_id": 370969702.000000, "name": "Moon lite", "type": "bus_stop", "ref": null }, "geometry": { "type": "Point", "coordinates": [ 80.176812462345424, 13.024691519174013 ] } },
{ "type": "Feature", "properties": { "id": 185.000000, "osm_id": 371720100.000000, "name": "Thalankuppam", "type": "bus_stop", "ref": null }, "geometry": { "type": "Point", "coordinates": [ 80.327908085531533, 13.224932168504125 ] } },
{ "type": "Feature", "properties": { "id": 186.000000, "osm_id": 373156202.000000, "name": null, "type": "bus_stop", "ref": null }, "geometry": { "type": "Point", "coordinates": [ 80.198676656773557, 12.907514775922152 ] } },
{ "type": "Feature", "properties": { "id": 187.000000, "osm_id": 373093423.000000, "name": null, "type": "level_crossing", "ref": null }, "geometry": { "type": "Point", "coordinates": [ 80.295076757534105, 13.156655783642663 ] } },
{ "type": "Feature", "properties": { "id": 188.000000, "osm_id": 384486247.000000, "name": null, "type": "bus_stop", "ref": null }, "geometry": { "type": "Point", "coordinates": [ 80.254787128273847, 13.079958771215047 ] } },
{ "type": "Feature", "properties": { "id": 189.000000, "osm_id": 373092680.000000, "name": null, "type": "level_crossing", "ref": null }, "geometry": { "type": "Point", "coordinates": [ 80.291865650428292, 13.15593787363585 ] } },
{ "type": "Feature", "properties": { "id": 190.000000, "osm_id": 373156194.000000, "name": null, "type": "bus_stop", "ref": null }, "geometry": { "type": "Point", "coordinates": [ 80.167836868970141, 12.905749463294766 ] } },
{ "type": "Feature", "properties": { "id": 191.000000, "osm_id": 373169886.000000, "name": null, "type": "bus_stop", "ref": null }, "geometry": { "type": "Point", "coordinates": [ 80.302166757971463, 13.159282839735312 ] } },
{ "type": "Feature", "properties": { "id": 192.000000, "osm_id": 373156197.000000, "name": "Jayanagar Bus Stop", "type": "bus_stop", "ref": null }, "geometry": { "type": "Point", "coordinates": [ 80.184445693927501, 12.890152753145628 ] } },
{ "type": "Feature", "properties": { "id": 193.000000, "osm_id": 378688565.000000, "name": "Woodlands", "type": "bus_stop", "ref": null }, "geometry": { "type": "Point", "coordinates": [ 80.251634191576102, 13.051341445038076 ] } },
{ "type": "Feature", "properties": { "id": 194.000000, "osm_id": 373169717.000000, "name": null, "type": "bus_stop", "ref": null }, "geometry": { "type": "Point", "coordinates": [ 80.298403199627501, 13.158754863654423 ] } },
{ "type": "Feature", "properties": { "id": 195.000000, "osm_id": 378688568.000000, "name": "Woodlands", "type": "bus_stop", "ref": null }, "geometry": { "type": "Point", "coordinates": [ 80.25188539721421, 13.051475136393691 ] } },
{ "type": "Feature", "properties": { "id": 196.000000, "osm_id": 384723341.000000, "name": "Poonamallee", "type": "bus_stop", "ref": null }, "geometry": { "type": "Point", "coordinates": [ 80.094794533964205, 13.050870298260691 ] } },
{ "type": "Feature", "properties": { "id": 197.000000, "osm_id": 386002530.000000, "name": null, "type": "bus_stop", "ref": null }, "geometry": { "type": "Point", "coordinates": [ 80.238273940831661, 13.030369420383749 ] } },
{ "type": "Feature", "properties": { "id": 198.000000, "osm_id": 389516314.000000, "name": "SIET", "type": "bus_stop", "ref": null }, "geometry": { "type": "Point", "coordinates": [ 80.246682247000194, 13.03687386106543 ] } },
{ "type": "Feature", "properties": { "id": 199.000000, "osm_id": 386002531.000000, "name": null, "type": "bus_stop", "ref": null }, "geometry": { "type": "Point", "coordinates": [ 80.243773726598988, 13.029554280300145 ] } },
{ "type": "Feature", "properties": { "id": 200.000000, "osm_id": 393765044.000000, "name": null, "type": "bus_stop", "ref": null }, "geometry": { "type": "Point", "coordinates": [ 80.285256687414062, 13.087598624500599 ] } },
{ "type": "Feature", "properties": { "id": 201.000000, "osm_id": 393765035.000000, "name": null, "type": "bus_stop", "ref": null }, "geometry": { "type": "Point", "coordinates": [ 80.285490877788732, 13.085228641378279 ] } },
{ "type": "Feature", "properties": { "id": 202.000000, "osm_id": 400900776.000000, "name": null, "type": "bus_stop", "ref": null }, "geometry": { "type": "Point", "coordinates": [ 80.207121927135049, 13.048952770271683 ] } },
{ "type": "Feature", "properties": { "id": 203.000000, "osm_id": 389964617.000000, "name": null, "type": "bus_stop", "ref": null }, "geometry": { "type": "Point", "coordinates": [ 80.193676683892477, 13.044188077412713 ] } },
{ "type": "Feature", "properties": { "id": 204.000000, "osm_id": 400900464.000000, "name": null, "type": "bus_stop", "ref": null }, "geometry": { "type": "Point", "coordinates": [ 80.211932636642473, 13.047024094351457 ] } },
{ "type": "Feature", "properties": { "id": 205.000000, "osm_id": 393765046.000000, "name": null, "type": "bus_stop", "ref": null }, "geometry": { "type": "Point", "coordinates": [ 80.288178618860343, 13.088518789830971 ] } },
{ "type": "Feature", "properties": { "id": 206.000000, "osm_id": 391823865.000000, "name": "Kathipara", "type": "bus_stop", "ref": null }, "geometry": { "type": "Point", "coordinates": [ 80.201802855200185, 13.00735648612573 ] } },
{ "type": "Feature", "properties": { "id": 207.000000, "osm_id": 391823888.000000, "name": null, "type": "bus_stop", "ref": null }, "geometry": { "type": "Point", "coordinates": [ 80.196991726597616, 13.007258334039562 ] } },
{ "type": "Feature", "properties": { "id": 208.000000, "osm_id": 391835404.000000, "name": "Kathipara Junction", "type": "motorway_junction", "ref": null }, "geometry": { "type": "Point", "coordinates": [ 80.20376908204662, 13.00761565457185 ] } },
{ "type": "Feature", "properties": { "id": 209.000000, "osm_id": 401880999.000000, "name": null, "type": "bus_stop", "ref": null }, "geometry": { "type": "Point", "coordinates": [ 80.204930478550352, 13.068118997706307 ] } },
{ "type": "Feature", "properties": { "id": 210.000000, "osm_id": 401880712.000000, "name": null, "type": "bus_stop", "ref": null }, "geometry": { "type": "Point", "coordinates": [ 80.200623689061729, 13.069268827183663 ] } },
{ "type": "Feature", "properties": { "id": 211.000000, "osm_id": 401769773.000000, "name": null, "type": "bus_stop", "ref": null }, "geometry": { "type": "Point", "coordinates": [ 80.206536954112607, 12.9947060987611 ] } },
{ "type": "Feature", "properties": { "id": 212.000000, "osm_id": 402290952.000000, "name": null, "type": "bus_stop", "ref": null }, "geometry": { "type": "Point", "coordinates": [ 80.124304532829171, 13.069491199074861 ] } },
{ "type": "Feature", "properties": { "id": 213.000000, "osm_id": 401880679.000000, "name": null, "type": "bus_stop", "ref": null }, "geometry": { "type": "Point", "coordinates": [ 80.197179984142892, 13.062793052610829 ] } },
{ "type": "Feature", "properties": { "id": 214.000000, "osm_id": 401880700.000000, "name": null, "type": "bus_stop", "ref": null }, "geometry": { "type": "Point", "coordinates": [ 80.197214349945909, 13.063119192463319 ] } },
{ "type": "Feature", "properties": { "id": 215.000000, "osm_id": 402516009.000000, "name": "Ambattur OT Bus Terminus", "type": "bus_stop", "ref": null }, "geometry": { "type": "Point", "coordinates": [ 80.149735059419513, 13.119623361955631 ] } },
{ "type": "Feature", "properties": { "id": 216.000000, "osm_id": 402516854.000000, "name": null, "type": "bus_stop", "ref": null }, "geometry": { "type": "Point", "coordinates": [ 80.164441946727777, 13.121976245995484 ] } },
{ "type": "Feature", "properties": { "id": 217.000000, "osm_id": 402292542.000000, "name": "Puzhithivakkam", "type": "bus_stop", "ref": null }, "geometry": { "type": "Point", "coordinates": [ 80.203355183667895, 12.973831471821654 ] } },
{ "type": "Feature", "properties": { "id": 218.000000, "osm_id": 402292545.000000, "name": null, "type": "bus_stop", "ref": null }, "geometry": { "type": "Point", "coordinates": [ 80.204154146678434, 13.057489319558753 ] } },
{ "type": "Feature", "properties": { "id": 219.000000, "osm_id": 403776620.000000, "name": "Koyambedu Interchange", "type": "motorway_junction", "ref": null }, "geometry": { "type": "Point", "coordinates": [ 80.199112934833749, 13.076174174294124 ] } },
{ "type": "Feature", "properties": { "id": 220.000000, "osm_id": 405508932.000000, "name": "Stella Maris", "type": "bus_stop", "ref": null }, "geometry": { "type": "Point", "coordinates": [ 80.254087239358853, 13.048023636304919 ] } },
{ "type": "Feature", "properties": { "id": 221.000000, "osm_id": 410293823.000000, "name": null, "type": "bus_stop", "ref": null }, "geometry": { "type": "Point", "coordinates": [ 80.232933327405647, 13.047089892291382 ] } },
{ "type": "Feature", "properties": { "id": 222.000000, "osm_id": 410293824.000000, "name": null, "type": "bus_stop", "ref": null }, "geometry": { "type": "Point", "coordinates": [ 80.23306215725745, 13.047733790093162 ] } },
{ "type": "Feature", "properties": { "id": 223.000000, "osm_id": 410615353.000000, "name": "Luz", "type": "bus_stop", "ref": null }, "geometry": { "type": "Point", "coordinates": [ 80.266584237895415, 13.036996655946922 ] } },
{ "type": "Feature", "properties": { "id": 224.000000, "osm_id": 407981751.000000, "name": "Luz", "type": "bus_stop", "ref": null }, "geometry": { "type": "Point", "coordinates": [ 80.267035519562228, 13.036885428091807 ] } },
{ "type": "Feature", "properties": { "id": 225.000000, "osm_id": 407983130.000000, "name": null, "type": "bus_stop", "ref": null }, "geometry": { "type": "Point", "coordinates": [ 80.264640977463614, 13.037428994512624 ] } },
{ "type": "Feature", "properties": { "id": 226.000000, "osm_id": 413858335.000000, "name": null, "type": "bus_stop", "ref": null }, "geometry": { "type": "Point", "coordinates": [ 80.270442847021343, 13.035201587563279 ] } },
{ "type": "Feature", "properties": { "id": 227.000000, "osm_id": 412728360.000000, "name": "Vivekananda College", "type": "bus_stop", "ref": null }, "geometry": { "type": "Point", "coordinates": [ 80.263551246232055, 13.039795121959486 ] } },
{ "type": "Feature", "properties": { "id": 228.000000, "osm_id": 410613113.000000, "name": null, "type": "bus_stop", "ref": null }, "geometry": { "type": "Point", "coordinates": [ 80.264177793494298, 13.02645113210724 ] } },
{ "type": "Feature", "properties": { "id": 229.000000, "osm_id": 410613378.000000, "name": null, "type": "bus_stop", "ref": null }, "geometry": { "type": "Point", "coordinates": [ 80.265173395953241, 13.025138358432201 ] } },
{ "type": "Feature", "properties": { "id": 230.000000, "osm_id": 410614381.000000, "name": "Mylapore Tank", "type": "bus_stop", "ref": null }, "geometry": { "type": "Point", "coordinates": [ 80.267851246379109, 13.033843216334986 ] } },
{ "type": "Feature", "properties": { "id": 231.000000, "osm_id": 414712727.000000, "name": "Royapettah Hospital", "type": "bus_stop", "ref": null }, "geometry": { "type": "Point", "coordinates": [ 80.264429921141755, 13.054652799705821 ] } },
{ "type": "Feature", "properties": { "id": 232.000000, "osm_id": 410614397.000000, "name": "Mylapore Tank", "type": "bus_stop", "ref": null }, "geometry": { "type": "Point", "coordinates": [ 80.268048640198856, 13.033926867728667 ] } },
{ "type": "Feature", "properties": { "id": 233.000000, "osm_id": 414712723.000000, "name": "Royapettah Hospital", "type": "bus_stop", "ref": null }, "geometry": { "type": "Point", "coordinates": [ 80.264198245338036, 13.054686159680442 ] } },
{ "type": "Feature", "properties": { "id": 234.000000, "osm_id": 415884492.000000, "name": "SRM University", "type": "bus_stop", "ref": null }, "geometry": { "type": "Point", "coordinates": [ 80.041752258120653, 12.826980947316827 ] } },
{ "type": "Feature", "properties": { "id": 235.000000, "osm_id": 414713529.000000, "name": null, "type": "bus_stop", "ref": null }, "geometry": { "type": "Point", "coordinates": [ 80.282176337997782, 13.064348817658868 ] } },
{ "type": "Feature", "properties": { "id": 236.000000, "osm_id": 414713705.000000, "name": null, "type": "bus_stop", "ref": null }, "geometry": { "type": "Point", "coordinates": [ 80.283729923751025, 13.065653125611703 ] } },
{ "type": "Feature", "properties": { "id": 237.000000, "osm_id": 416412351.000000, "name": null, "type": "bus_stop", "ref": null }, "geometry": { "type": "Point", "coordinates": [ 80.267596436522624, 13.037845323643237 ] } },
{ "type": "Feature", "properties": { "id": 238.000000, "osm_id": 411316688.000000, "name": "Virugambakkam", "type": "bus_stop", "ref": null }, "geometry": { "type": "Point", "coordinates": [ 80.192380338747668, 13.049000463300757 ] } },
{ "type": "Feature", "properties": { "id": 239.000000, "osm_id": 416412294.000000, "name": null, "type": "bus_stop", "ref": null }, "geometry": { "type": "Point", "coordinates": [ 80.267761895291244, 13.037527649512981 ] } },
{ "type": "Feature", "properties": { "id": 240.000000, "osm_id": 415913900.000000, "name": null, "type": "bus_stop", "ref": null }, "geometry": { "type": "Point", "coordinates": [ 80.24202442340669, 13.070016157670608 ] } },
{ "type": "Feature", "properties": { "id": 241.000000, "osm_id": 415913904.000000, "name": null, "type": "bus_stop", "ref": null }, "geometry": { "type": "Point", "coordinates": [ 80.242118887455433, 13.070483616410598 ] } },
{ "type": "Feature", "properties": { "id": 242.000000, "osm_id": 417750649.000000, "name": null, "type": "bus_stop", "ref": null }, "geometry": { "type": "Point", "coordinates": [ 80.267290245599668, 13.000798317444689 ] } },
{ "type": "Feature", "properties": { "id": 243.000000, "osm_id": 417750654.000000, "name": null, "type": "bus_stop", "ref": null }, "geometry": { "type": "Point", "coordinates": [ 80.267668437070867, 12.996087352585048 ] } },
{ "type": "Feature", "properties": { "id": 244.000000, "osm_id": 414713706.000000, "name": null, "type": "bus_stop", "ref": null }, "geometry": { "type": "Point", "coordinates": [ 80.282039042423818, 13.064507738543028 ] } },
{ "type": "Feature", "properties": { "id": 245.000000, "osm_id": 418116039.000000, "name": "Devanathan Street", "type": "bus_stop", "ref": null }, "geometry": { "type": "Point", "coordinates": [ 80.263849055251796, 13.028827736933067 ] } },
{ "type": "Feature", "properties": { "id": 246.000000, "osm_id": 418116040.000000, "name": null, "type": "bus_stop", "ref": null }, "geometry": { "type": "Point", "coordinates": [ 80.266242926798157, 13.027195948023234 ] } },
{ "type": "Feature", "properties": { "id": 247.000000, "osm_id": 418116041.000000, "name": null, "type": "bus_stop", "ref": null }, "geometry": { "type": "Point", "coordinates": [ 80.265133498094144, 13.024863264370055 ] } },
{ "type": "Feature", "properties": { "id": 248.000000, "osm_id": 414714010.000000, "name": null, "type": "bus_stop", "ref": null }, "geometry": { "type": "Point", "coordinates": [ 80.283747022833495, 13.064524418530368 ] } },
{ "type": "Feature", "properties": { "id": 249.000000, "osm_id": 454190489.000000, "name": "Pennalur EB", "type": "bus_stop", "ref": null }, "geometry": { "type": "Point", "coordinates": [ 79.974784036887456, 12.984620322310462 ] } },
{ "type": "Feature", "properties": { "id": 250.000000, "osm_id": 454190280.000000, "name": "Pennalur EB", "type": "bus_stop", "ref": null }, "geometry": { "type": "Point", "coordinates": [ 79.975041528952943, 12.984511692845331 ] } },
{ "type": "Feature", "properties": { "id": 251.000000, "osm_id": 459633606.000000, "name": null, "type": "bus_stop", "ref": null }, "geometry": { "type": "Point", "coordinates": [ 80.201316034263868, 13.054622289578248 ] } },
{ "type": "Feature", "properties": { "id": 252.000000, "osm_id": 418116038.000000, "name": "Mandaveli Post Office", "type": "bus_stop", "ref": null }, "geometry": { "type": "Point", "coordinates": [ 80.26614485853105, 13.029321263391921 ] } },
{ "type": "Feature", "properties": { "id": 253.000000, "osm_id": 418116043.000000, "name": "Narada Gana Sabha", "type": "bus_stop", "ref": null }, "geometry": { "type": "Point", "coordinates": [ 80.258688485105949, 13.041480471230585 ] } },
{ "type": "Feature", "properties": { "id": 254.000000, "osm_id": 418116044.000000, "name": "Narada Gana Sabha", "type": "bus_stop", "ref": null }, "geometry": { "type": "Point", "coordinates": [ 80.259067933862582, 13.041709716282355 ] } },
{ "type": "Feature", "properties": { "id": 255.000000, "osm_id": 442131985.000000, "name": null, "type": "bus_stop", "ref": null }, "geometry": { "type": "Point", "coordinates": [ 80.116935498835119, 12.92541575507272 ] } },
{ "type": "Feature", "properties": { "id": 256.000000, "osm_id": 418116045.000000, "name": "Alwarpet", "type": "bus_stop", "ref": null }, "geometry": { "type": "Point", "coordinates": [ 80.256162850041676, 13.037483895978395 ] } },
{ "type": "Feature", "properties": { "id": 257.000000, "osm_id": 442506948.000000, "name": "Ram Nagar", "type": "bus_stop", "ref": null }, "geometry": { "type": "Point", "coordinates": [ 80.207054452814532, 12.965216384101836 ] } },
{ "type": "Feature", "properties": { "id": 258.000000, "osm_id": 459632401.000000, "name": null, "type": "bus_stop", "ref": null }, "geometry": { "type": "Point", "coordinates": [ 80.203973768122125, 13.054501422534484 ] } },
{ "type": "Feature", "properties": { "id": 259.000000, "osm_id": 459633603.000000, "name": null, "type": "bus_stop", "ref": null }, "geometry": { "type": "Point", "coordinates": [ 80.204234277672754, 13.054438139165541 ] } },
{ "type": "Feature", "properties": { "id": 260.000000, "osm_id": 560212201.000000, "name": "Nehru nagar", "type": "bus_stop", "ref": null }, "geometry": { "type": "Point", "coordinates": [ 80.140312040052834, 12.9426368780569 ] } },
{ "type": "Feature", "properties": { "id": 261.000000, "osm_id": 571352244.000000, "name": "Aalaiamman Koil Stop", "type": "bus_stop", "ref": null }, "geometry": { "type": "Point", "coordinates": [ 80.245513474421671, 13.039448781720353 ] } },
{ "type": "Feature", "properties": { "id": 262.000000, "osm_id": 577376043.000000, "name": "Madya Kailash", "type": "bus_stop", "ref": null }, "geometry": { "type": "Point", "coordinates": [ 80.246623741316057, 13.006551655782999 ] } },
{ "type": "Feature", "properties": { "id": 263.000000, "osm_id": 595704144.000000, "name": "Sai Nagar bus stop", "type": "bus_stop", "ref": null }, "geometry": { "type": "Point", "coordinates": [ 80.195334791978269, 13.05988243673383 ] } },
{ "type": "Feature", "properties": { "id": 264.000000, "osm_id": 597593840.000000, "name": "Kesavardhini bus stop", "type": "bus_stop", "ref": null }, "geometry": { "type": "Point", "coordinates": [ 80.178190279589103, 13.041927142850682 ] } },
{ "type": "Feature", "properties": { "id": 265.000000, "osm_id": 595702075.000000, "name": "Natesa Nagar bus stop", "type": "bus_stop", "ref": null }, "geometry": { "type": "Point", "coordinates": [ 80.194057976667864, 13.057342720072256 ] } },
{ "type": "Feature", "properties": { "id": 266.000000, "osm_id": 595706156.000000, "name": "Vadapalani Koil bus stop", "type": "bus_stop", "ref": null }, "geometry": { "type": "Point", "coordinates": [ 80.214857166478737, 13.049876456001412 ] } },
{ "type": "Feature", "properties": { "id": 267.000000, "osm_id": 595702076.000000, "name": "Natesa Nagar bus stop", "type": "bus_stop", "ref": null }, "geometry": { "type": "Point", "coordinates": [ 80.194551586945735, 13.057645893510056 ] } },
{ "type": "Feature", "properties": { "id": 268.000000, "osm_id": 595735860.000000, "name": "Avichi bus stop", "type": "bus_stop", "ref": null }, "geometry": { "type": "Point", "coordinates": [ 80.197844920521675, 13.04739247899596 ] } },
{ "type": "Feature", "properties": { "id": 269.000000, "osm_id": 595714972.000000, "name": "Elango Nagar bus stop", "type": "bus_stop", "ref": null }, "geometry": { "type": "Point", "coordinates": [ 80.192118739549642, 13.052585235650014 ] } },
{ "type": "Feature", "properties": { "id": 270.000000, "osm_id": 603001067.000000, "name": "Vadapalani", "type": "station", "ref": null }, "geometry": { "type": "Point", "coordinates": [ 80.212098430687263, 13.049732874000057 ] } },
{ "type": "Feature", "properties": { "id": 271.000000, "osm_id": 602990311.000000, "name": "Arumbakkam", "type": "station", "ref": null }, "geometry": { "type": "Point", "coordinates": [ 80.211669696339911, 13.063305857446977 ] } },
{ "type": "Feature", "properties": { "id": 272.000000, "osm_id": 603015245.000000, "name": "Washermanpet Metro (planned)", "type": "station", "ref": null }, "geometry": { "type": "Point", "coordinates": [ 80.280813356722774, 13.108907685481539 ] } },
{ "type": "Feature", "properties": { "id": 273.000000, "osm_id": 603007164.000000, "name": "Alandur", "type": "station", "ref": null }, "geometry": { "type": "Point", "coordinates": [ 80.201563970959739, 13.004257780341504 ] } },
{ "type": "Feature", "properties": { "id": 274.000000, "osm_id": 603012295.000000, "name": "Meenambakkam Metro", "type": "station", "ref": null }, "geometry": { "type": "Point", "coordinates": [ 80.174069987446103, 12.985993026593206 ] } },
{ "type": "Feature", "properties": { "id": 275.000000, "osm_id": 605248049.000000, "name": null, "type": "crossing", "ref": null }, "geometry": { "type": "Point", "coordinates": [ 80.094459928389526, 12.904395199199028 ] } },
{ "type": "Feature", "properties": { "id": 276.000000, "osm_id": 605248547.000000, "name": null, "type": "level_crossing", "ref": null }, "geometry": { "type": "Point", "coordinates": [ 80.073864754101919, 12.870268448066128 ] } },
{ "type": "Feature", "properties": { "id": 277.000000, "osm_id": 603012299.000000, "name": "Chennai Airport", "type": "station", "ref": null }, "geometry": { "type": "Point", "coordinates": [ 80.163606941533658, 12.980789960198223 ] } },
{ "type": "Feature", "properties": { "id": 278.000000, "osm_id": 603015252.000000, "name": "Mannady (planned)", "type": "station", "ref": null }, "geometry": { "type": "Point", "coordinates": [ 80.285973256316367, 13.095400080879358 ] } },
{ "type": "Feature", "properties": { "id": 279.000000, "osm_id": 603015312.000000, "name": "Saidapet (planned)", "type": "station", "ref": null }, "geometry": { "type": "Point", "coordinates": [ 80.227544685674445, 13.02339182126795 ] } },
{ "type": "Feature", "properties": { "id": 280.000000, "osm_id": 603015331.000000, "name": "Guindy Metro", "type": "station", "ref": null }, "geometry": { "type": "Point", "coordinates": [ 80.213442133584977, 13.009342829539776 ] } },
{ "type": "Feature", "properties": { "id": 281.000000, "osm_id": 603015259.000000, "name": "High Court (planned)", "type": "station", "ref": null }, "geometry": { "type": "Point", "coordinates": [ 80.283313175525208, 13.084758248972179 ] } },
{ "type": "Feature", "properties": { "id": 282.000000, "osm_id": 604693344.000000, "name": null, "type": "bus_stop", "ref": null }, "geometry": { "type": "Point", "coordinates": [ 80.277360431710406, 13.051568762252145 ] } },
{ "type": "Feature", "properties": { "id": 283.000000, "osm_id": 611743120.000000, "name": "Binny Mills", "type": "bus_stop", "ref": null }, "geometry": { "type": "Point", "coordinates": [ 80.252855853963638, 13.103061894751219 ] } },
{ "type": "Feature", "properties": { "id": 284.000000, "osm_id": 603015278.000000, "name": "Secretariat (planned)", "type": "station", "ref": null }, "geometry": { "type": "Point", "coordinates": [ 80.273442646348087, 13.0699131440806 ] } },
{ "type": "Feature", "properties": { "id": 285.000000, "osm_id": 603015265.000000, "name": "Chennai Central Metro (u\/c)", "type": "station", "ref": null }, "geometry": { "type": "Point", "coordinates": [ 80.273959725954853, 13.081854590074812 ] } },
{ "type": "Feature", "properties": { "id": 286.000000, "osm_id": 603007132.000000, "name": "St. Thomas Mount Metro", "type": "station", "ref": null }, "geometry": { "type": "Point", "coordinates": [ 80.198887880733537, 12.995264082055343 ] } },
{ "type": "Feature", "properties": { "id": 287.000000, "osm_id": 603015287.000000, "name": "Thousand Lights (planned)", "type": "station", "ref": null }, "geometry": { "type": "Point", "coordinates": [ 80.256144326035667, 13.056118291656674 ] } },
{ "type": "Feature", "properties": { "id": 288.000000, "osm_id": 618609725.000000, "name": "Sayani", "type": "bus_stop", "ref": null }, "geometry": { "type": "Point", "coordinates": [ 80.239925930128152, 13.097781798666091 ] } },
{ "type": "Feature", "properties": { "id": 289.000000, "osm_id": 614009832.000000, "name": "sembakkam", "type": "bus_stop", "ref": null }, "geometry": { "type": "Point", "coordinates": [ 80.155509855429955, 12.923468219870358 ] } },
{ "type": "Feature", "properties": { "id": 290.000000, "osm_id": 652426192.000000, "name": "Nehru park (planned)", "type": "station", "ref": null }, "geometry": { "type": "Point", "coordinates": [ 80.250599529448309, 13.078774492115656 ] } },
{ "type": "Feature", "properties": { "id": 291.000000, "osm_id": 670686287.000000, "name": "Ramapuram Junction", "type": "motorway_junction", "ref": null }, "geometry": { "type": "Point", "coordinates": [ 80.183442547755703, 13.021120325507923 ] } },
{ "type": "Feature", "properties": { "id": 292.000000, "osm_id": 652426199.000000, "name": "Egmore (planned)", "type": "station", "ref": null }, "geometry": { "type": "Point", "coordinates": [ 80.26305378027871, 13.080288599104904 ] } },
{ "type": "Feature", "properties": { "id": 293.000000, "osm_id": 675894137.000000, "name": "Puzhal", "type": "motorway_junction", "ref": null }, "geometry": { "type": "Point", "coordinates": [ 80.210408639007483, 13.152227288919988 ] } },
{ "type": "Feature", "properties": { "id": 294.000000, "osm_id": 675752169.000000, "name": null, "type": "bus_stop", "ref": null }, "geometry": { "type": "Point", "coordinates": [ 80.242344528288868, 13.108941548370353 ] } },
{ "type": "Feature", "properties": { "id": 295.000000, "osm_id": 687175415.000000, "name": "CMBT", "type": "station", "ref": null }, "geometry": { "type": "Point", "coordinates": [ 80.204781280673842, 13.068461733727075 ] } },
{ "type": "Feature", "properties": { "id": 296.000000, "osm_id": 691189595.000000, "name": "Larsen & Toubro", "type": "bus_stop", "ref": null }, "geometry": { "type": "Point", "coordinates": [ 80.178655559034269, 13.024258174779959 ] } },
{ "type": "Feature", "properties": { "id": 297.000000, "osm_id": 694064191.000000, "name": "Medavakkam Jn", "type": "bus_stop", "ref": null }, "geometry": { "type": "Point", "coordinates": [ 80.184158949019945, 12.92046825290552 ] } },
{ "type": "Feature", "properties": { "id": 298.000000, "osm_id": 729821770.000000, "name": null, "type": "bus_stop", "ref": null }, "geometry": { "type": "Point", "coordinates": [ 80.23951706089133, 13.046386985891246 ] } },
{ "type": "Feature", "properties": { "id": 299.000000, "osm_id": 744509839.000000, "name": "Adambakkam (u\/c)", "type": "station", "ref": null }, "geometry": { "type": "Point", "coordinates": [ 80.196764828478706, 12.982421581469993 ] } },
{ "type": "Feature", "properties": { "id": 300.000000, "osm_id": 735219408.000000, "name": "Maduravoyal Interchange", "type": "motorway_junction", "ref": null }, "geometry": { "type": "Point", "coordinates": [ 80.160669168290326, 13.061519422423629 ] } },
{ "type": "Feature", "properties": { "id": 301.000000, "osm_id": 744509866.000000, "name": "Puzhithivakkam (u\/c)", "type": "station", "ref": null }, "geometry": { "type": "Point", "coordinates": [ 80.204562680639071, 12.977812289095851 ] } },
{ "type": "Feature", "properties": { "id": 302.000000, "osm_id": 792499919.000000, "name": null, "type": "bus_stop", "ref": null }, "geometry": { "type": "Point", "coordinates": [ 80.010548779538496, 12.776942577932545 ] } },
{ "type": "Feature", "properties": { "id": 303.000000, "osm_id": 792499932.000000, "name": null, "type": "bus_stop", "ref": null }, "geometry": { "type": "Point", "coordinates": [ 80.010119626096014, 12.776764630128184 ] } },
{ "type": "Feature", "properties": { "id": 304.000000, "osm_id": 792492708.000000, "name": null, "type": "bus_stop", "ref": null }, "geometry": { "type": "Point", "coordinates": [ 80.019775578551901, 12.794185242407877 ] } },
{ "type": "Feature", "properties": { "id": 305.000000, "osm_id": 792496485.000000, "name": null, "type": "bus_stop", "ref": null }, "geometry": { "type": "Point", "coordinates": [ 80.017050454192145, 12.790460576094659 ] } },
{ "type": "Feature", "properties": { "id": 306.000000, "osm_id": 792493820.000000, "name": null, "type": "bus_stop", "ref": null }, "geometry": { "type": "Point", "coordinates": [ 80.016975352339728, 12.789477043576282 ] } },
{ "type": "Feature", "properties": { "id": 307.000000, "osm_id": 792493866.000000, "name": null, "type": "bus_stop", "ref": null }, "geometry": { "type": "Point", "coordinates": [ 80.016889437832219, 12.789508475713204 ] } },
{ "type": "Feature", "properties": { "id": 308.000000, "osm_id": 792496444.000000, "name": null, "type": "bus_stop", "ref": null }, "geometry": { "type": "Point", "coordinates": [ 80.016932436995489, 12.79054422748834 ] } },
{ "type": "Feature", "properties": { "id": 309.000000, "osm_id": 792271330.000000, "name": null, "type": "bus_stop", "ref": null }, "geometry": { "type": "Point", "coordinates": [ 80.036923024607233, 12.819854988514834 ] } },
{ "type": "Feature", "properties": { "id": 310.000000, "osm_id": 792499779.000000, "name": null, "type": "bus_stop", "ref": null }, "geometry": { "type": "Point", "coordinates": [ 80.010623881390984, 12.776911145795651 ] } },
{ "type": "Feature", "properties": { "id": 311.000000, "osm_id": 792497987.000000, "name": null, "type": "level_crossing", "ref": null }, "geometry": { "type": "Point", "coordinates": [ 80.002358319033476, 12.76398055140794 ] } },
{ "type": "Feature", "properties": { "id": 312.000000, "osm_id": 792469356.000000, "name": null, "type": "bus_stop", "ref": null }, "geometry": { "type": "Point", "coordinates": [ 80.032649930369359, 12.81456064319431 ] } },
{ "type": "Feature", "properties": { "id": 313.000000, "osm_id": 792499784.000000, "name": null, "type": "bus_stop", "ref": null }, "geometry": { "type": "Point", "coordinates": [ 80.010076626932744, 12.776816933203973 ] } },
{ "type": "Feature", "properties": { "id": 314.000000, "osm_id": 792489925.000000, "name": null, "type": "bus_stop", "ref": null }, "geometry": { "type": "Point", "coordinates": [ 80.023454479673831, 12.799503476152438 ] } },
{ "type": "Feature", "properties": { "id": 315.000000, "osm_id": 792489928.000000, "name": null, "type": "bus_stop", "ref": null }, "geometry": { "type": "Point", "coordinates": [ 80.023211488300831, 12.800049138049047 ] } },
{ "type": "Feature", "properties": { "id": 316.000000, "osm_id": 792525868.000000, "name": null, "type": "bus_stop", "ref": null }, "geometry": { "type": "Point", "coordinates": [ 79.992728182839357, 12.743343048509274 ] } },
{ "type": "Feature", "properties": { "id": 317.000000, "osm_id": 792525766.000000, "name": null, "type": "bus_stop", "ref": null }, "geometry": { "type": "Point", "coordinates": [ 79.992577979134524, 12.743803466450601 ] } },
{ "type": "Feature", "properties": { "id": 318.000000, "osm_id": 792525765.000000, "name": null, "type": "bus_stop", "ref": null }, "geometry": { "type": "Point", "coordinates": [ 79.992760369347536, 12.743227964978701 ] } },
{ "type": "Feature", "properties": { "id": 319.000000, "osm_id": 792531613.000000, "name": null, "type": "bus_stop", "ref": null }, "geometry": { "type": "Point", "coordinates": [ 79.988586852119397, 12.738110729272222 ] } },
{ "type": "Feature", "properties": { "id": 320.000000, "osm_id": 812316994.000000, "name": "Otteri", "type": "bus_stop", "ref": null }, "geometry": { "type": "Point", "coordinates": [ 80.080376654677423, 12.88012028559919 ] } },
{ "type": "Feature", "properties": { "id": 321.000000, "osm_id": 824249809.000000, "name": "Ernavur Gate", "type": "motorway_junction", "ref": null }, "geometry": { "type": "Point", "coordinates": [ 80.312642628195761, 13.184926434304373 ] } },
{ "type": "Feature", "properties": { "id": 322.000000, "osm_id": 815616656.000000, "name": null, "type": "bus_stop", "ref": null }, "geometry": { "type": "Point", "coordinates": [ 80.019890745901535, 12.794113996230919 ] } },
{ "type": "Feature", "properties": { "id": 323.000000, "osm_id": 824249816.000000, "name": "Chennai Central", "type": "motorway_junction", "ref": null }, "geometry": { "type": "Point", "coordinates": [ 80.275568464630965, 13.081673960061437 ] } },
{ "type": "Feature", "properties": { "id": 324.000000, "osm_id": 824249789.000000, "name": "Mint Junction", "type": "motorway_junction", "ref": null }, "geometry": { "type": "Point", "coordinates": [ 80.27997256801541, 13.105579818464548 ] } },
{ "type": "Feature", "properties": { "id": 325.000000, "osm_id": 824249773.000000, "name": "Gemini Flyover", "type": "motorway_junction", "ref": null }, "geometry": { "type": "Point", "coordinates": [ 80.251154243800372, 13.052216599548444 ] } },
{ "type": "Feature", "properties": { "id": 326.000000, "osm_id": 824249795.000000, "name": "Adyar Flyover", "type": "motorway_junction", "ref": null }, "geometry": { "type": "Point", "coordinates": [ 80.258716145386416, 13.007270739256255 ] } },
{ "type": "Feature", "properties": { "id": 327.000000, "osm_id": 824249780.000000, "name": "Ashok Pillar", "type": "motorway_junction", "ref": null }, "geometry": { "type": "Point", "coordinates": [ 80.211933139556663, 13.03467461731077 ] } },
{ "type": "Feature", "properties": { "id": 328.000000, "osm_id": 824249792.000000, "name": "OTA Junction", "type": "motorway_junction", "ref": null }, "geometry": { "type": "Point", "coordinates": [ 80.192203564409738, 12.998412995439566 ] } },
{ "type": "Feature", "properties": { "id": 329.000000, "osm_id": 824249782.000000, "name": "Padi Interchange", "type": "motorway_junction", "ref": null }, "geometry": { "type": "Point", "coordinates": [ 80.194191584204404, 13.101944670877229 ] } },
{ "type": "Feature", "properties": { "id": 330.000000, "osm_id": 824249800.000000, "name": "Ambattur Estate Junction", "type": "motorway_junction", "ref": null }, "geometry": { "type": "Point", "coordinates": [ 80.161941457373075, 13.101583829945611 ] } },
{ "type": "Feature", "properties": { "id": 331.000000, "osm_id": 824249785.000000, "name": "Tambaram Flyover", "type": "motorway_junction", "ref": null }, "geometry": { "type": "Point", "coordinates": [ 80.115465983570743, 12.924252095455159 ] } },
{ "type": "Feature", "properties": { "id": 332.000000, "osm_id": 824249829.000000, "name": "Madhya Kailash", "type": "motorway_junction", "ref": null }, "geometry": { "type": "Point", "coordinates": [ 80.247359672414674, 13.006685850052804 ] } },
{ "type": "Feature", "properties": { "id": 333.000000, "osm_id": 792525889.000000, "name": null, "type": "bus_stop", "ref": null }, "geometry": { "type": "Point", "coordinates": [ 79.992642352150881, 12.743761640753746 ] } },
{ "type": "Feature", "properties": { "id": 334.000000, "osm_id": 824249831.000000, "name": "Irumbiliyur Interchange", "type": "motorway_junction", "ref": null }, "geometry": { "type": "Point", "coordinates": [ 80.102258032007001, 12.915494431562363 ] } },
{ "type": "Feature", "properties": { "id": 335.000000, "osm_id": 792531507.000000, "name": null, "type": "bus_stop", "ref": null }, "geometry": { "type": "Point", "coordinates": [ 79.988715598152154, 12.738089774514293 ] } },
{ "type": "Feature", "properties": { "id": 336.000000, "osm_id": 824249843.000000, "name": "Parrys Corner", "type": "motorway_junction", "ref": null }, "geometry": { "type": "Point", "coordinates": [ 80.290428321672081, 13.088727834496126 ] } },
{ "type": "Feature", "properties": { "id": 337.000000, "osm_id": 824249847.000000, "name": "Thirumangalam Junction", "type": "motorway_junction", "ref": null }, "geometry": { "type": "Point", "coordinates": [ 80.198574565192928, 13.086227261322364 ] } },
{ "type": "Feature", "properties": { "id": 338.000000, "osm_id": 824249848.000000, "name": "Vijaynagar Junction", "type": "motorway_junction", "ref": null }, "geometry": { "type": "Point", "coordinates": [ 80.220901440676187, 12.97558312194684 ] } },
{ "type": "Feature", "properties": { "id": 339.000000, "osm_id": 824249822.000000, "name": "IG Office", "type": "motorway_junction", "ref": null }, "geometry": { "type": "Point", "coordinates": [ 80.279723960767285, 13.043158360607832 ] } },
{ "type": "Feature", "properties": { "id": 340.000000, "osm_id": 824249827.000000, "name": "Madhavaram Junction", "type": "motorway_junction", "ref": null }, "geometry": { "type": "Point", "coordinates": [ 80.220438927259067, 13.144477129788639 ] } },
{ "type": "Feature", "properties": { "id": 341.000000, "osm_id": 824249805.000000, "name": "Moolakadai Junction", "type": "motorway_junction", "ref": null }, "geometry": { "type": "Point", "coordinates": [ 80.241859299914154, 13.128890980837497 ] } },
{ "type": "Feature", "properties": { "id": 342.000000, "osm_id": 864565808.000000, "name": null, "type": "station", "ref": "TBM" }, "geometry": { "type": "Point", "coordinates": [ 80.120679527344691, 12.926792398849953 ] } },
{ "type": "Feature", "properties": { "id": 343.000000, "osm_id": 864565818.000000, "name": null, "type": "station", "ref": "TBM" }, "geometry": { "type": "Point", "coordinates": [ 80.12058011797302, 12.926871859292021 ] } },
{ "type": "Feature", "properties": { "id": 344.000000, "osm_id": 826127021.000000, "name": "Thiruvanmiyur", "type": "motorway_junction", "ref": null }, "geometry": { "type": "Point", "coordinates": [ 80.256129070971895, 12.987545438879947 ] } },
{ "type": "Feature", "properties": { "id": 345.000000, "osm_id": 864565821.000000, "name": null, "type": "station", "ref": "TBM" }, "geometry": { "type": "Point", "coordinates": [ 80.120769548984754, 12.926697180429898 ] } },
{ "type": "Feature", "properties": { "id": 346.000000, "osm_id": 842831419.000000, "name": "Vandalur zoo", "type": "bus_stop", "ref": null }, "geometry": { "type": "Point", "coordinates": [ 80.080307084881042, 12.880142330004531 ] } },
{ "type": "Feature", "properties": { "id": 347.000000, "osm_id": 934859082.000000, "name": "Alwarthirunagar BusStop", "type": "bus_stop", "ref": null }, "geometry": { "type": "Point", "coordinates": [ 80.185164777400757, 13.044235686622727 ] } },
{ "type": "Feature", "properties": { "id": 348.000000, "osm_id": 966556116.000000, "name": "Chintadripet", "type": "bus_stop", "ref": null }, "geometry": { "type": "Point", "coordinates": [ 80.271436186366429, 13.075040773347013 ] } },
{ "type": "Feature", "properties": { "id": 349.000000, "osm_id": 941583422.000000, "name": null, "type": "bus_stop", "ref": null }, "geometry": { "type": "Point", "coordinates": [ 80.220521656643427, 13.074315068170248 ] } },
{ "type": "Feature", "properties": { "id": 350.000000, "osm_id": 964604284.000000, "name": null, "type": "bus_stop", "ref": null }, "geometry": { "type": "Point", "coordinates": [ 80.216179579342452, 12.902264267955218 ] } },
{ "type": "Feature", "properties": { "id": 351.000000, "osm_id": 964603654.000000, "name": "Pallavaram Radial Road", "type": "motorway_junction", "ref": null }, "geometry": { "type": "Point", "coordinates": [ 80.145362974905197, 12.960395783948684 ] } },
{ "type": "Feature", "properties": { "id": 352.000000, "osm_id": 966544114.000000, "name": "Ripon Building", "type": "bus_stop", "ref": null }, "geometry": { "type": "Point", "coordinates": [ 80.273170066856892, 13.081268024490724 ] } },
{ "type": "Feature", "properties": { "id": 353.000000, "osm_id": 977566536.000000, "name": null, "type": "level_crossing", "ref": null }, "geometry": { "type": "Point", "coordinates": [ 80.163116264921882, 12.978442189119335 ] } },
{ "type": "Feature", "properties": { "id": 354.000000, "osm_id": 977566539.000000, "name": null, "type": "level_crossing", "ref": null }, "geometry": { "type": "Point", "coordinates": [ 80.16315867735193, 12.978311179972735 ] } },
{ "type": "Feature", "properties": { "id": 355.000000, "osm_id": 959609084.000000, "name": null, "type": "bus_stop", "ref": null }, "geometry": { "type": "Point", "coordinates": [ 80.247918158623122, 13.053188565040443 ] } },
{ "type": "Feature", "properties": { "id": 356.000000, "osm_id": 977566544.000000, "name": null, "type": "level_crossing", "ref": null }, "geometry": { "type": "Point", "coordinates": [ 80.163100087848761, 12.97849432455706 ] } },
{ "type": "Feature", "properties": { "id": 357.000000, "osm_id": 978213017.000000, "name": "Mathur Gate", "type": "bus_stop", "ref": null }, "geometry": { "type": "Point", "coordinates": [ 80.245964169355304, 13.166829989171788 ] } },
{ "type": "Feature", "properties": { "id": 358.000000, "osm_id": 978454750.000000, "name": "Porur Junction", "type": "motorway_junction", "ref": null }, "geometry": { "type": "Point", "coordinates": [ 80.155974967237043, 13.034886763280099 ] } },
{ "type": "Feature", "properties": { "id": 359.000000, "osm_id": 978588586.000000, "name": "Narayanapuram", "type": "bus_stop", "ref": null }, "geometry": { "type": "Point", "coordinates": [ 80.205630199827283, 12.940627735866201 ] } },
{ "type": "Feature", "properties": { "id": 360.000000, "osm_id": 1001424410.000000, "name": "DPI", "type": "bus_stop", "ref": null }, "geometry": { "type": "Point", "coordinates": [ 80.253474773693924, 13.067505945308197 ] } },
{ "type": "Feature", "properties": { "id": 361.000000, "osm_id": 1008213356.000000, "name": "Sevvapet Road", "type": "station", "ref": null }, "geometry": { "type": "Point", "coordinates": [ 79.965902237008663, 13.124972022008734 ] } },
{ "type": "Feature", "properties": { "id": 362.000000, "osm_id": 1008213388.000000, "name": "Tiruvallur", "type": "station", "ref": "TRL" }, "geometry": { "type": "Point", "coordinates": [ 79.91277765087591, 13.115953094194026 ] } },
{ "type": "Feature", "properties": { "id": 363.000000, "osm_id": 996517630.000000, "name": "Virugambakkam", "type": "bus_stop", "ref": null }, "geometry": { "type": "Point", "coordinates": [ 80.190213197682169, 13.046390171014451 ] } },
{ "type": "Feature", "properties": { "id": 364.000000, "osm_id": 1007625832.000000, "name": "Vadapalani Junction", "type": "bus_stop", "ref": null }, "geometry": { "type": "Point", "coordinates": [ 80.211987957203405, 13.048879260980868 ] } },
{ "type": "Feature", "properties": { "id": 365.000000, "osm_id": 1001424418.000000, "name": "Ethiraj College", "type": "bus_stop", "ref": null }, "geometry": { "type": "Point", "coordinates": [ 80.258871042957082, 13.064370359150018 ] } },
{ "type": "Feature", "properties": { "id": 366.000000, "osm_id": 1001424417.000000, "name": "Ethiraj College", "type": "bus_stop", "ref": null }, "geometry": { "type": "Point", "coordinates": [ 80.258958130931035, 13.064490388003462 ] } },
{ "type": "Feature", "properties": { "id": 367.000000, "osm_id": 1007625852.000000, "name": "Guindy", "type": "bus_stop", "ref": null }, "geometry": { "type": "Point", "coordinates": [ 80.20986272565375, 13.007728977902756 ] } },
{ "type": "Feature", "properties": { "id": 368.000000, "osm_id": 1008213404.000000, "name": null, "type": "level_crossing", "ref": null }, "geometry": { "type": "Point", "coordinates": [ 80.212919773379198, 13.109885434486728 ] } },
{ "type": "Feature", "properties": { "id": 369.000000, "osm_id": 1008034350.000000, "name": null, "type": "station", "ref": "GDY:4" }, "geometry": { "type": "Point", "coordinates": [ 80.212807120600587, 13.008217642857772 ] } },
{ "type": "Feature", "properties": { "id": 370.000000, "osm_id": 1008213391.000000, "name": "Vepampattu", "type": "station", "ref": null }, "geometry": { "type": "Point", "coordinates": [ 79.999199095908352, 13.123620021026822 ] } },
{ "type": "Feature", "properties": { "id": 371.000000, "osm_id": 1008034354.000000, "name": "Meenambakkam", "type": "station", "ref": "MN" }, "geometry": { "type": "Point", "coordinates": [ 80.174937095329426, 12.984701626771255 ] } },
{ "type": "Feature", "properties": { "id": 372.000000, "osm_id": 1008034376.000000, "name": "Guindy", "type": "station", "ref": "GDY:1" }, "geometry": { "type": "Point", "coordinates": [ 80.212590532222578, 13.008426184608709 ] } },
{ "type": "Feature", "properties": { "id": 373.000000, "osm_id": 1015572322.000000, "name": "St. Johns School Bus stop", "type": "bus_stop", "ref": null }, "geometry": { "type": "Point", "coordinates": [ 80.181755354465906, 13.031247340922162 ] } },
{ "type": "Feature", "properties": { "id": 374.000000, "osm_id": 1008213434.000000, "name": "Putlur", "type": "station", "ref": null }, "geometry": { "type": "Point", "coordinates": [ 79.93721441902602, 13.123001185115527 ] } },
{ "type": "Feature", "properties": { "id": 375.000000, "osm_id": 1008034389.000000, "name": "Chromepet", "type": "station", "ref": "CMP" }, "geometry": { "type": "Point", "coordinates": [ 80.140868095509333, 12.951661924660925 ] } },
{ "type": "Feature", "properties": { "id": 376.000000, "osm_id": 1008213447.000000, "name": "Tiruninravur", "type": "station", "ref": null }, "geometry": { "type": "Point", "coordinates": [ 80.027106139610396, 13.123792352956087 ] } },
{ "type": "Feature", "properties": { "id": 377.000000, "osm_id": 1015556637.000000, "name": "Rampuram MIOT Hospital", "type": "bus_stop", "ref": null }, "geometry": { "type": "Point", "coordinates": [ 80.183923333721737, 13.021049163149968 ] } },
{ "type": "Feature", "properties": { "id": 378.000000, "osm_id": 1008034405.000000, "name": "Tirisulam", "type": "station", "ref": "TLM" }, "geometry": { "type": "Point", "coordinates": [ 80.165706189183425, 12.9803239263818 ] } },
{ "type": "Feature", "properties": { "id": 379.000000, "osm_id": 1015569839.000000, "name": "SRM College Bus Stop", "type": "bus_stop", "ref": null }, "geometry": { "type": "Point", "coordinates": [ 80.179908150644508, 13.03172142136566 ] } },
{ "type": "Feature", "properties": { "id": 380.000000, "osm_id": 1015562222.000000, "name": "MIOT hospital Bus stop", "type": "bus_stop", "ref": null }, "geometry": { "type": "Point", "coordinates": [ 80.183770447807831, 13.020725118773271 ] } },
{ "type": "Feature", "properties": { "id": 381.000000, "osm_id": 1015570222.000000, "name": "Arasamaram Bus Stop", "type": "bus_stop", "ref": null }, "geometry": { "type": "Point", "coordinates": [ 80.183963650675992, 13.031428725306823 ] } },
{ "type": "Feature", "properties": { "id": 382.000000, "osm_id": 1008213311.000000, "name": null, "type": "level_crossing", "ref": null }, "geometry": { "type": "Point", "coordinates": [ 80.212913654589897, 13.109820726194215 ] } },
{ "type": "Feature", "properties": { "id": 383.000000, "osm_id": 1015570839.000000, "name": "Rayala Nagar Bus Stop", "type": "bus_stop", "ref": null }, "geometry": { "type": "Point", "coordinates": [ 80.1836953459554, 13.028982885960801 ] } },
{ "type": "Feature", "properties": { "id": 384.000000, "osm_id": 1015575816.000000, "name": "Amman Koil Bus stop", "type": "bus_stop", "ref": null }, "geometry": { "type": "Point", "coordinates": [ 80.196733647798908, 13.041483823991854 ] } },
{ "type": "Feature", "properties": { "id": 385.000000, "osm_id": 1015576952.000000, "name": "PSBB Bus Stop", "type": "bus_stop", "ref": null }, "geometry": { "type": "Point", "coordinates": [ 80.198951750835704, 13.03912163603948 ] } },
{ "type": "Feature", "properties": { "id": 386.000000, "osm_id": 1015575361.000000, "name": "Ayyapan Koil Bus stop", "type": "bus_stop", "ref": null }, "geometry": { "type": "Point", "coordinates": [ 80.196956271147201, 13.039362029022499 ] } },
{ "type": "Feature", "properties": { "id": 387.000000, "osm_id": 1015578911.000000, "name": "Pondicherry Guest house Bus stop", "type": "bus_stop", "ref": null }, "geometry": { "type": "Point", "coordinates": [ 80.193222552378529, 13.041713823414909 ] } },
{ "type": "Feature", "properties": { "id": 388.000000, "osm_id": 1015583032.000000, "name": "MGR Nagar Market Bus Stop", "type": "bus_stop", "ref": null }, "geometry": { "type": "Point", "coordinates": [ 80.2016661463594, 13.03659222911881 ] } },
{ "type": "Feature", "properties": { "id": 389.000000, "osm_id": 1015577154.000000, "name": "PSBB School Bus stop", "type": "bus_stop", "ref": null }, "geometry": { "type": "Point", "coordinates": [ 80.19926297090052, 13.04113899249529 ] } },
{ "type": "Feature", "properties": { "id": 390.000000, "osm_id": 1015580858.000000, "name": "Nesapakkam Bus stop", "type": "bus_stop", "ref": null }, "geometry": { "type": "Point", "coordinates": [ 80.192686194394454, 13.038160064107416 ] } },
{ "type": "Feature", "properties": { "id": 391.000000, "osm_id": 1015581126.000000, "name": "Ajantha Bus Stop", "type": "bus_stop", "ref": null }, "geometry": { "type": "Point", "coordinates": [ 80.196419745525077, 13.037334362825789 ] } },
{ "type": "Feature", "properties": { "id": 392.000000, "osm_id": 1024562407.000000, "name": "Ashok Pillar (Towards Vadapalani & Koyumbedu)", "type": "bus_stop", "ref": null }, "geometry": { "type": "Point", "coordinates": [ 80.211904473447817, 13.035061777418347 ] } },
{ "type": "Feature", "properties": { "id": 393.000000, "osm_id": 1108947861.000000, "name": null, "type": "station", "ref": null }, "geometry": { "type": "Point", "coordinates": [ 80.064948756058186, 13.118955743367875 ] } },
{ "type": "Feature", "properties": { "id": 394.000000, "osm_id": 1069492323.000000, "name": "Chataram Bus Stop", "type": "bus_stop", "ref": null }, "geometry": { "type": "Point", "coordinates": [ 80.275784047180579, 13.086731348979241 ] } },
{ "type": "Feature", "properties": { "id": 395.000000, "osm_id": 1015583945.000000, "name": "Pilliayar Koil Bus Stop", "type": "bus_stop", "ref": null }, "geometry": { "type": "Point", "coordinates": [ 80.205013543210782, 13.040752251482841 ] } },
{ "type": "Feature", "properties": { "id": 396.000000, "osm_id": 1024570438.000000, "name": "ESIC", "type": "bus_stop", "ref": null }, "geometry": { "type": "Point", "coordinates": [ 80.20825666918671, 13.035197648068788 ] } },
{ "type": "Feature", "properties": { "id": 397.000000, "osm_id": 1015584175.000000, "name": "Sivan park Bus stop", "type": "bus_stop", "ref": null }, "geometry": { "type": "Point", "coordinates": [ 80.205389052472981, 13.041159863434189 ] } },
{ "type": "Feature", "properties": { "id": 398.000000, "osm_id": 1024673452.000000, "name": "Madanandhapuram", "type": "bus_stop", "ref": null }, "geometry": { "type": "Point", "coordinates": [ 80.146735260092782, 13.022937522115939 ] } },
{ "type": "Feature", "properties": { "id": 399.000000, "osm_id": 1024674757.000000, "name": "Moulivakkam (Bai kadai)", "type": "bus_stop", "ref": null }, "geometry": { "type": "Point", "coordinates": [ 80.143342684783306, 13.019842588188141 ] } },
{ "type": "Feature", "properties": { "id": 400.000000, "osm_id": 1024558013.000000, "name": "Ashok Pillar (Towards K.K Nagar & Porur)", "type": "bus_stop", "ref": null }, "geometry": { "type": "Point", "coordinates": [ 80.212204880857541, 13.031654282321227 ] } },
{ "type": "Feature", "properties": { "id": 401.000000, "osm_id": 1120146509.000000, "name": null, "type": "level_crossing", "ref": null }, "geometry": { "type": "Point", "coordinates": [ 79.977297182915947, 12.700810924873963 ] } },
{ "type": "Feature", "properties": { "id": 402.000000, "osm_id": 1024560151.000000, "name": "Ashok Pillar", "type": "bus_stop", "ref": null }, "geometry": { "type": "Point", "coordinates": [ 80.211990890869515, 13.032554917817235 ] } },
{ "type": "Feature", "properties": { "id": 403.000000, "osm_id": 1067520553.000000, "name": "R.A. Puram", "type": "bus_stop", "ref": null }, "geometry": { "type": "Point", "coordinates": [ 80.254262924049314, 13.027289238605562 ] } },
{ "type": "Feature", "properties": { "id": 404.000000, "osm_id": 1109183233.000000, "name": null, "type": "halt", "ref": null }, "geometry": { "type": "Point", "coordinates": [ 80.210594381981764, 13.109912172757845 ] } },
{ "type": "Feature", "properties": { "id": 405.000000, "osm_id": 1109183357.000000, "name": null, "type": "bus_stop", "ref": null }, "geometry": { "type": "Point", "coordinates": [ 80.199864372453249, 13.121017943005654 ] } },
{ "type": "Feature", "properties": { "id": 406.000000, "osm_id": 1115906888.000000, "name": "Tambaram Sanatorium", "type": "station", "ref": "TBMS" }, "geometry": { "type": "Point", "coordinates": [ 80.130695566360885, 12.937082526099942 ] } },
{ "type": "Feature", "properties": { "id": 407.000000, "osm_id": 1123425650.000000, "name": null, "type": "station", "ref": null }, "geometry": { "type": "Point", "coordinates": [ 80.057408144506155, 12.845265230899541 ] } },
{ "type": "Feature", "properties": { "id": 408.000000, "osm_id": 1137935383.000000, "name": null, "type": "station", "ref": null }, "geometry": { "type": "Point", "coordinates": [ 80.08449309114495, 12.891271653400251 ] } },
{ "type": "Feature", "properties": { "id": 409.000000, "osm_id": 1137934115.000000, "name": null, "type": "level_crossing", "ref": null }, "geometry": { "type": "Point", "coordinates": [ 80.073736175707211, 12.870325193550627 ] } },
{ "type": "Feature", "properties": { "id": 410.000000, "osm_id": 1145642416.000000, "name": null, "type": "level_crossing", "ref": null }, "geometry": { "type": "Point", "coordinates": [ 80.059264987516201, 12.847696150457921 ] } },
{ "type": "Feature", "properties": { "id": 411.000000, "osm_id": 1145642527.000000, "name": null, "type": "level_crossing", "ref": null }, "geometry": { "type": "Point", "coordinates": [ 80.059109419393337, 12.847804696104021 ] } },
{ "type": "Feature", "properties": { "id": 412.000000, "osm_id": 1141163691.000000, "name": null, "type": "station", "ref": "VLCY:3" }, "geometry": { "type": "Point", "coordinates": [ 80.219510631482592, 12.967175737787699 ] } },
{ "type": "Feature", "properties": { "id": 413.000000, "osm_id": 1123425783.000000, "name": null, "type": "station", "ref": null }, "geometry": { "type": "Point", "coordinates": [ 80.037021176693358, 12.821155189335114 ] } },
{ "type": "Feature", "properties": { "id": 414.000000, "osm_id": 1145642159.000000, "name": null, "type": "level_crossing", "ref": null }, "geometry": { "type": "Point", "coordinates": [ 80.059153592023051, 12.847769575929732 ] } },
{ "type": "Feature", "properties": { "id": 415.000000, "osm_id": 1131077579.000000, "name": null, "type": "level_crossing", "ref": null }, "geometry": { "type": "Point", "coordinates": [ 80.275768289202631, 13.115683783645066 ] } },
{ "type": "Feature", "properties": { "id": 416.000000, "osm_id": 1137919969.000000, "name": null, "type": "level_crossing", "ref": null }, "geometry": { "type": "Point", "coordinates": [ 80.073801470732917, 12.870296862717879 ] } },
{ "type": "Feature", "properties": { "id": 417.000000, "osm_id": 1145642324.000000, "name": null, "type": "level_crossing", "ref": null }, "geometry": { "type": "Point", "coordinates": [ 80.05920405108013, 12.847737221783461 ] } },
{ "type": "Feature", "properties": { "id": 418.000000, "osm_id": 1137925802.000000, "name": null, "type": "station", "ref": null }, "geometry": { "type": "Point", "coordinates": [ 80.072399429789129, 12.868161489065415 ] } },
{ "type": "Feature", "properties": { "id": 419.000000, "osm_id": 1145798656.000000, "name": null, "type": "level_crossing", "ref": null }, "geometry": { "type": "Point", "coordinates": [ 80.018816772647881, 12.795005998366634 ] } },
{ "type": "Feature", "properties": { "id": 420.000000, "osm_id": 1145799279.000000, "name": null, "type": "level_crossing", "ref": null }, "geometry": { "type": "Point", "coordinates": [ 80.018831357159456, 12.795002226510206 ] } },
{ "type": "Feature", "properties": { "id": 421.000000, "osm_id": 1145798207.000000, "name": null, "type": "station", "ref": null }, "geometry": { "type": "Point", "coordinates": [ 80.026586461613647, 12.805727793630069 ] } },
{ "type": "Feature", "properties": { "id": 422.000000, "osm_id": 1145799203.000000, "name": null, "type": "level_crossing", "ref": null }, "geometry": { "type": "Point", "coordinates": [ 80.028541959624022, 12.809000423905132 ] } },
{ "type": "Feature", "properties": { "id": 423.000000, "osm_id": 1145798456.000000, "name": null, "type": "level_crossing", "ref": null }, "geometry": { "type": "Point", "coordinates": [ 80.028584958787292, 12.80895046776223 ] } },
{ "type": "Feature", "properties": { "id": 424.000000, "osm_id": 1165551007.000000, "name": "Shenoy Nagar (u\/c))", "type": "station", "ref": null }, "geometry": { "type": "Point", "coordinates": [ 80.225237818283006, 13.07960882675755 ] } },
{ "type": "Feature", "properties": { "id": 425.000000, "osm_id": 1145799869.000000, "name": null, "type": "level_crossing", "ref": null }, "geometry": { "type": "Point", "coordinates": [ 80.035648137134501, 12.819306560590206 ] } },
{ "type": "Feature", "properties": { "id": 426.000000, "osm_id": 1145799895.000000, "name": null, "type": "level_crossing", "ref": null }, "geometry": { "type": "Point", "coordinates": [ 80.028567859704822, 12.809025150519487 ] } },